{
    "'s-Hertogenbosch": {
        "title": "'s-Hertogenbosch",
        "lat": 51.69014,
        "lng": 5.29897
    },
    "Aachen": {
        "title": "Aachen",
        "lat": 50.7753,
        "lng": 6.0828
    },
    "Aakirkeby": {
        "title": "Aakirkeby",
        "lat": 55.0694214,
        "lng": 14.9204372
    },
    "Aalborg": {
        "title": "Aalborg",
        "lat": 57.05,
        "lng": 9.93
    },
    "Aalst": {
        "title": "Aalst",
        "lat": 50.93809,
        "lng": 4.03919
    },
    "Aarau": {
        "title": "Aarau",
        "lat": 47.4,
        "lng": 8.05
    },
    "Aarhus": {
        "title": "Aarhus",
        "lat": 56.15,
        "lng": 10.217
    },
    "Aba (prefecture)": {
        "title": "Aba (prefecture)",
        "lat": 31.901,
        "lng": 102.22055
    },
    "Abacos": {
        "title": "Abacos",
        "lat": 26.466666666667,
        "lng": -77.083333333333
    },
    "Abadan": {
        "title": "Abadan",
        "lat": 30.3631,
        "lng": 48.25925
    },
    "Abadeh": {
        "title": "Abadeh",
        "lat": 31.15883,
        "lng": 52.65541
    },
    "Abaiang": {
        "title": "Abaiang",
        "lat": 1.83335,
        "lng": 173.01158
    },
    "Abakan": {
        "title": "Abakan",
        "lat": 53.7167,
        "lng": 91.4167
    },
    "Abancay": {
        "title": "Abancay",
        "lat": -13.6333,
        "lng": -72.8833
    },
    "Abashiri": {
        "title": "Abashiri",
        "lat": 44.02043,
        "lng": 144.2733
    },
    "Abastumani": {
        "title": "Abastumani",
        "lat": 41.70651,
        "lng": 42.8412
    },
    "Abbeville": {
        "title": "Abbeville",
        "lat": 50.10584,
        "lng": 1.83437
    },
    "Abbeyleix": {
        "title": "Abbeyleix",
        "lat": 52.9,
        "lng": -7.35
    },
    "Abbotsford": {
        "title": "Abbotsford",
        "lat": 49.04994,
        "lng": -122.29998
    },
    "Abbottabad": {
        "title": "Abbottabad",
        "lat": 34.155833,
        "lng": 73.219444
    },
    "Abemama": {
        "title": "Abemama",
        "lat": 0.3996,
        "lng": 173.8768
    },
    "Aberaeron": {
        "title": "Aberaeron",
        "lat": 52.24307,
        "lng": -4.25986
    },
    "Abercrombie": {
        "title": "Abercrombie",
        "lat": 46.4472,
        "lng": -96.7294
    },
    "Aberdare National Park": {
        "title": "Aberdare National Park",
        "lat": -0.38,
        "lng": 36.699167
    },
    "Aberdeen": {
        "title": "Aberdeen",
        "lat": 57.1526,
        "lng": -2.11
    },
    "Aberdeen (South Dakota)": {
        "title": "Aberdeen (South Dakota)",
        "lat": 45.464722,
        "lng": -98.486389
    },
    "Aberdeen (Washington)": {
        "title": "Aberdeen (Washington)",
        "lat": 46.98,
        "lng": -123.82
    },
    "Aberdeenshire": {
        "title": "Aberdeenshire",
        "lat": 57.151,
        "lng": -2.123
    },
    "Aberdour": {
        "title": "Aberdour",
        "lat": 56.052778,
        "lng": -3.302105
    },
    "Aberdyfi": {
        "title": "Aberdyfi",
        "lat": 52.54438,
        "lng": -4.0444
    },
    "Aberfeldy": {
        "title": "Aberfeldy",
        "lat": 56.61908,
        "lng": -3.8683
    },
    "Abergavenny": {
        "title": "Abergavenny",
        "lat": 51.82045,
        "lng": -3.0124
    },
    "Abernathy": {
        "title": "Abernathy",
        "lat": 33.831944,
        "lng": -101.845
    },
    "Abersoch": {
        "title": "Abersoch",
        "lat": 52.8239,
        "lng": -4.5066
    },
    "Aberystwyth": {
        "title": "Aberystwyth",
        "lat": 52.4077,
        "lng": -4.0592
    },
    "Abha": {
        "title": "Abha",
        "lat": 18.21647,
        "lng": 42.50439
    },
    "Abhaneri": {
        "title": "Abhaneri",
        "lat": 27.0073,
        "lng": 76.6071
    },
    "Abidjan": {
        "title": "Abidjan",
        "lat": 5.3167,
        "lng": -4.0333
    },
    "Abijatta Shalla Lakes National Park": {
        "title": "Abijatta Shalla Lakes National Park",
        "lat": 7.5,
        "lng": 38.5
    },
    "Abilene": {
        "title": "Abilene",
        "lat": 32.446389,
        "lng": -99.745556
    },
    "Abingdon-on-Thames": {
        "title": "Abingdon-on-Thames",
        "lat": 51.666,
        "lng": -1.282
    },
    "Abington Township": {
        "title": "Abington Township",
        "lat": 40.12056,
        "lng": -75.11806
    },
    "Abiquiu": {
        "title": "Abiquiu",
        "lat": 36.209444,
        "lng": -106.318611
    },
    "Abisko and Björkliden": {
        "title": "Abisko and Björkliden",
        "lat": 68.3333,
        "lng": 18.85
    },
    "Abita Springs": {
        "title": "Abita Springs",
        "lat": 30.47,
        "lng": -90.03
    },
    "Abitibi-Témiscamingue": {
        "title": "Abitibi-Témiscamingue",
        "lat": 48.5333,
        "lng": -78.0167
    },
    "Abkhazia": {
        "title": "Abkhazia",
        "lat": 43,
        "lng": 40.9833
    },
    "Abomey": {
        "title": "Abomey",
        "lat": 7.1833,
        "lng": 1.9833
    },
    "Abrolhos": {
        "title": "Abrolhos",
        "lat": -17.969,
        "lng": -38.698
    },
    "Abruzzo": {
        "title": "Abruzzo",
        "lat": 42.2166667,
        "lng": 13.8333333
    },
    "Abu Dhabi": {
        "title": "Abu Dhabi",
        "lat": 24.4667,
        "lng": 54.3667
    },
    "Abu Dhabi (emirate)": {
        "title": "Abu Dhabi (emirate)",
        "lat": 23.5237,
        "lng": 53.876953
    },
    "Abu Ghosh": {
        "title": "Abu Ghosh",
        "lat": 31.8048,
        "lng": 35.1124
    },
    "Abuja": {
        "title": "Abuja",
        "lat": 9.083,
        "lng": 7.533
    },
    "Abu Simbel": {
        "title": "Abu Simbel",
        "lat": 22.336944,
        "lng": 31.625556
    },
    "Abusir": {
        "title": "Abusir",
        "lat": 29.9,
        "lng": 31.2
    },
    "Abydos": {
        "title": "Abydos",
        "lat": 26.185,
        "lng": 31.918889
    },
    "Açailândia": {
        "title": "Açailândia",
        "lat": -4.9469444444444,
        "lng": -47.505
    },
    "Aït-Benhaddou": {
        "title": "Aït-Benhaddou",
        "lat": 31.05,
        "lng": -7.133333
    },
    "Añasco": {
        "title": "Añasco",
        "lat": 18.316111,
        "lng": -67.139722
    },
    "Acadiana": {
        "title": "Acadiana",
        "lat": 30.23,
        "lng": -92.01
    },
    "Acadia National Park": {
        "title": "Acadia National Park",
        "lat": 44.222,
        "lng": -68.33
    },
    "Acadian Coast": {
        "title": "Acadian Coast",
        "lat": 47.96,
        "lng": -65.79
    },
    "Acapulco": {
        "title": "Acapulco",
        "lat": 16.863611,
        "lng": -99.8825
    },
    "Accra": {
        "title": "Accra",
        "lat": 5.54967,
        "lng": -0.21645
    },
    "Accrington": {
        "title": "Accrington",
        "lat": 53.7534,
        "lng": -2.3638
    },
    "Aceh": {
        "title": "Aceh",
        "lat": 4.3,
        "lng": 96.9
    },
    "Achao": {
        "title": "Achao",
        "lat": -42.4667,
        "lng": -73.5167
    },
    "Achill Island": {
        "title": "Achill Island",
        "lat": 53.9589,
        "lng": -10.0389
    },
    "Achiltibuie": {
        "title": "Achiltibuie",
        "lat": 58.01968,
        "lng": -5.34199
    },
    "Achinsk": {
        "title": "Achinsk",
        "lat": 56.25,
        "lng": 90.5
    },
    "Achterhoek": {
        "title": "Achterhoek",
        "lat": 52.101,
        "lng": 6.389
    },
    "Aci Trezza": {
        "title": "Aci Trezza",
        "lat": 37.5237,
        "lng": 15.1036
    },
    "A Coruña": {
        "title": "A Coruña",
        "lat": 43.371491,
        "lng": -8.39597
    },
    "Acre (Brazil)": {
        "title": "Acre (Brazil)",
        "lat": -9.11,
        "lng": -70.52
    },
    "Acton (Massachusetts)": {
        "title": "Acton (Massachusetts)",
        "lat": 42.485,
        "lng": -71.43278
    },
    "Acton (Ontario)": {
        "title": "Acton (Ontario)",
        "lat": 43.6314,
        "lng": -80.0389
    },
    "Actun Tunichil Muknal": {
        "title": "Actun Tunichil Muknal",
        "lat": 17.189877777778,
        "lng": -88.49765
    },
    "Ada (Ghana)": {
        "title": "Ada (Ghana)",
        "lat": 5.8616,
        "lng": 0.59292
    },
    "Ada (Michigan)": {
        "title": "Ada (Michigan)",
        "lat": 42.95417,
        "lng": -85.48889
    },
    "Ada (Ohio)": {
        "title": "Ada (Ohio)",
        "lat": 40.76944,
        "lng": -83.82278
    },
    "Ada (Oklahoma)": {
        "title": "Ada (Oklahoma)",
        "lat": 34.763611,
        "lng": -96.668333
    },
    "Adama": {
        "title": "Adama",
        "lat": 8.55,
        "lng": 39.266666666667
    },
    "Adams (Massachusetts)": {
        "title": "Adams (Massachusetts)",
        "lat": 42.624167,
        "lng": -73.118056
    },
    "Adams (North Dakota)": {
        "title": "Adams (North Dakota)",
        "lat": 48.42139,
        "lng": -98.07889
    },
    "Adana": {
        "title": "Adana",
        "lat": 37,
        "lng": 35.3213
    },
    "Adare": {
        "title": "Adare",
        "lat": 52.5667,
        "lng": -8.8
    },
    "Ad Dakhla": {
        "title": "Ad Dakhla",
        "lat": 23.716666666667,
        "lng": -15.95
    },
    "Addis Ababa": {
        "title": "Addis Ababa",
        "lat": 9.01039,
        "lng": 38.7614
    },
    "Addison": {
        "title": "Addison",
        "lat": 32.957778,
        "lng": -96.835
    },
    "Addo": {
        "title": "Addo",
        "lat": -33.5667,
        "lng": 25.6833
    },
    "Addo Elephant National Park": {
        "title": "Addo Elephant National Park",
        "lat": -33.4461,
        "lng": 25.7458
    },
    "Addu": {
        "title": "Addu",
        "lat": -0.63333333333333,
        "lng": 73.15
    },
    "Adelaide": {
        "title": "Adelaide",
        "lat": -34.9267,
        "lng": 138.5991
    },
    "Adelaide Hills": {
        "title": "Adelaide Hills",
        "lat": -34.9112,
        "lng": 138.707
    },
    "Adelanto": {
        "title": "Adelanto",
        "lat": 34.576111,
        "lng": -117.432778
    },
    "Aden": {
        "title": "Aden",
        "lat": 12.783333333333,
        "lng": 45.016666666667
    },
    "Adirondacks": {
        "title": "Adirondacks",
        "lat": 44,
        "lng": -74.3
    },
    "Adoor": {
        "title": "Adoor",
        "lat": 9.1,
        "lng": 76.44
    },
    "Adra": {
        "title": "Adra",
        "lat": 36.75,
        "lng": -3.0167
    },
    "Adrar des Ifoghas": {
        "title": "Adrar des Ifoghas",
        "lat": 19.1167,
        "lng": 1.75
    },
    "Adrian (Michigan)": {
        "title": "Adrian (Michigan)",
        "lat": 41.8975,
        "lng": -84.03722
    },
    "Adrian (Texas)": {
        "title": "Adrian (Texas)",
        "lat": 35.274444,
        "lng": -102.666389
    },
    "Adrogué": {
        "title": "Adrogué",
        "lat": -34.8,
        "lng": -58.3833
    },
    "Adygea": {
        "title": "Adygea",
        "lat": 44.492587,
        "lng": 39.917908
    },
    "Aegadian Islands": {
        "title": "Aegadian Islands",
        "lat": 37.9667,
        "lng": 12.2
    },
    "Aegean Turkey": {
        "title": "Aegean Turkey",
        "lat": 38.32,
        "lng": 28.31
    },
    "Aegina": {
        "title": "Aegina",
        "lat": 37.74,
        "lng": 23.44
    },
    "Aeolian Islands": {
        "title": "Aeolian Islands",
        "lat": 38.5333,
        "lng": 14.9
    },
    "Afandou": {
        "title": "Afandou",
        "lat": 36.3,
        "lng": 28.1667
    },
    "Afghanistan": {
        "title": "Afghanistan",
        "lat": 33.1764,
        "lng": 65.1705
    },
    "Aflao": {
        "title": "Aflao",
        "lat": 6.1167,
        "lng": 1.1833
    },
    "Africa": {
        "title": "Africa",
        "lat": 8.1,
        "lng": 21.6
    },
    "Afton": {
        "title": "Afton",
        "lat": 44.902778,
        "lng": -92.783333
    },
    "Afula": {
        "title": "Afula",
        "lat": 32.606267,
        "lng": 35.288086
    },
    "Afyonkarahisar": {
        "title": "Afyonkarahisar",
        "lat": 38.758,
        "lng": 30.5387
    },
    "Afytos": {
        "title": "Afytos",
        "lat": 40.0986,
        "lng": 23.4355
    },
    "Agadir": {
        "title": "Agadir",
        "lat": 30.4333,
        "lng": -9.6
    },
    "Hagåtña": {
        "title": "Hagåtña",
        "lat": 13.483333,
        "lng": 144.75
    },
    "Agartala": {
        "title": "Agartala",
        "lat": 23.8337,
        "lng": 91.2828
    },
    "Agawam": {
        "title": "Agawam",
        "lat": 42.06944,
        "lng": -72.61472
    },
    "Agdam": {
        "title": "Agdam",
        "lat": 39.9931,
        "lng": 46.9306
    },
    "Ageo": {
        "title": "Ageo",
        "lat": 35.9833,
        "lng": 139.6
    },
    "Agios Ioannis": {
        "title": "Agios Ioannis",
        "lat": 39.4082,
        "lng": 23.1587
    },
    "Agios Nikolaos": {
        "title": "Agios Nikolaos",
        "lat": 35.183333333333,
        "lng": 25.716666666667
    },
    "Agios Nikolaos (Chalkidiki)": {
        "title": "Agios Nikolaos (Chalkidiki)",
        "lat": 39.9298,
        "lng": 23.7375
    },
    "Agonda": {
        "title": "Agonda",
        "lat": 15.0403,
        "lng": 73.98648
    },
    "Agost": {
        "title": "Agost",
        "lat": 38.4392,
        "lng": -0.6394
    },
    "Agoura Hills": {
        "title": "Agoura Hills",
        "lat": 34.153333,
        "lng": -118.761667
    },
    "Agra": {
        "title": "Agra",
        "lat": 27.18,
        "lng": 78.02
    },
    "Agrigento": {
        "title": "Agrigento",
        "lat": 37.3167,
        "lng": 13.5833
    },
    "Agrigento (province)": {
        "title": "Agrigento (province)",
        "lat": 37.4,
        "lng": 13.58
    },
    "Agros": {
        "title": "Agros",
        "lat": 34.9167,
        "lng": 33.0167
    },
    "Agua Blanca": {
        "title": "Agua Blanca",
        "lat": -1.5333333333333,
        "lng": -80.733333333333
    },
    "Aguadilla": {
        "title": "Aguadilla",
        "lat": 18.43,
        "lng": -67.154444
    },
    "Agua Prieta": {
        "title": "Agua Prieta",
        "lat": 31.3258,
        "lng": -109.5489
    },
    "Aguascalientes": {
        "title": "Aguascalientes",
        "lat": 21.8875,
        "lng": -102.29
    },
    "Aguas Calientes": {
        "title": "Aguas Calientes",
        "lat": -13.15429,
        "lng": -72.52367
    },
    "Aguascalientes (state)": {
        "title": "Aguascalientes (state)",
        "lat": 22.021,
        "lng": -102.356
    },
    "Aguateca": {
        "title": "Aguateca",
        "lat": 16.41194444,
        "lng": -90.18833333
    },
    "Aguaytía": {
        "title": "Aguaytía",
        "lat": -9.0333,
        "lng": -75.5167
    },
    "Agulhas National Park": {
        "title": "Agulhas National Park",
        "lat": -34.82722222,
        "lng": 20.00666667
    },
    "Agumbe": {
        "title": "Agumbe",
        "lat": 13.5087,
        "lng": 75.0959
    },
    "Ahal Province": {
        "title": "Ahal Province",
        "lat": 38.5,
        "lng": 59
    },
    "Ahmedabad": {
        "title": "Ahmedabad",
        "lat": 23.02619,
        "lng": 72.57946
    },
    "Ahmednagar": {
        "title": "Ahmednagar",
        "lat": 19.083333333333,
        "lng": 74.733333333333
    },
    "Ahvaz": {
        "title": "Ahvaz",
        "lat": 31.320278,
        "lng": 48.669167
    },
    "Ahwa": {
        "title": "Ahwa",
        "lat": 20.75,
        "lng": 73.6833
    },
    "Ai-Ais Richtersveld Transfrontier Park": {
        "title": "Ai-Ais Richtersveld Transfrontier Park",
        "lat": -28.0539,
        "lng": 17.0347
    },
    "Aichi": {
        "title": "Aichi",
        "lat": 35.180189,
        "lng": 136.913508
    },
    "Aigues-Mortes": {
        "title": "Aigues-Mortes",
        "lat": 43.5667,
        "lng": 4.2
    },
    "Aihole": {
        "title": "Aihole",
        "lat": 16.020667,
        "lng": 75.881944
    },
    "Aiken": {
        "title": "Aiken",
        "lat": 33.549444,
        "lng": -81.720556
    },
    "Ailsa Craig": {
        "title": "Ailsa Craig",
        "lat": 55.251944,
        "lng": -5.116389
    },
    "Ainsa": {
        "title": "Ainsa",
        "lat": 42.41622,
        "lng": 0.13819
    },
    "Aioi": {
        "title": "Aioi",
        "lat": 34.8,
        "lng": 134.4667
    },
    "Airdrie (Alberta)": {
        "title": "Airdrie (Alberta)",
        "lat": 51.291667,
        "lng": -114.014444
    },
    "Aireys Inlet": {
        "title": "Aireys Inlet",
        "lat": -38.46,
        "lng": 144.107
    },
    "Airlie Beach": {
        "title": "Airlie Beach",
        "lat": -20.2675,
        "lng": 148.716944
    },
    "Aitutaki": {
        "title": "Aitutaki",
        "lat": -18.83,
        "lng": -159.75
    },
    "Aiud": {
        "title": "Aiud",
        "lat": 46.3122,
        "lng": 23.7292
    },
    "Aix-en-Provence": {
        "title": "Aix-en-Provence",
        "lat": 43.526304,
        "lng": 5.445429
    },
    "Aizawl": {
        "title": "Aizawl",
        "lat": 23.733333,
        "lng": 92.716666667
    },
    "Aizuwakamatsu": {
        "title": "Aizuwakamatsu",
        "lat": 37.49,
        "lng": 139.934
    },
    "Ajaccio": {
        "title": "Ajaccio",
        "lat": 41.9267,
        "lng": 8.7369
    },
    "Ajai Game Reserve": {
        "title": "Ajai Game Reserve",
        "lat": 2.86666667,
        "lng": 31.28333333
    },
    "Ajlun": {
        "title": "Ajlun",
        "lat": 32.333611111111,
        "lng": 35.752222222222
    },
    "Ajman": {
        "title": "Ajman",
        "lat": 25.4,
        "lng": 55.5
    },
    "Ajmer": {
        "title": "Ajmer",
        "lat": 26.468,
        "lng": 74.639
    },
    "Ajmer Division": {
        "title": "Ajmer Division",
        "lat": 26.4499,
        "lng": 74.63992
    },
    "Akajima": {
        "title": "Akajima",
        "lat": 26.199722,
        "lng": 127.280833
    },
    "Akan National Park": {
        "title": "Akan National Park",
        "lat": 43.54,
        "lng": 144.28
    },
    "Akaroa": {
        "title": "Akaroa",
        "lat": -43.804143,
        "lng": 172.96819
    },
    "Akashi": {
        "title": "Akashi",
        "lat": 34.65,
        "lng": 135
    },
    "Akçakoca": {
        "title": "Akçakoca",
        "lat": 41.0833,
        "lng": 31.1167
    },
    "Oslo region": {
        "title": "Oslo region",
        "lat": 60,
        "lng": 11
    },
    "Akhaltsikhe": {
        "title": "Akhaltsikhe",
        "lat": 41.638889,
        "lng": 42.986111
    },
    "Akita": {
        "title": "Akita",
        "lat": 39.71709083,
        "lng": 140.10581083
    },
    "Akita (prefecture)": {
        "title": "Akita (prefecture)",
        "lat": 39.7186,
        "lng": 140.3
    },
    "Akko": {
        "title": "Akko",
        "lat": 32.926,
        "lng": 35.084
    },
    "Aklan": {
        "title": "Aklan",
        "lat": 11.6667,
        "lng": 122.3333
    },
    "Aklera": {
        "title": "Aklera",
        "lat": 24.4167,
        "lng": 76.5667
    },
    "Ako": {
        "title": "Ako",
        "lat": 34.751667,
        "lng": 134.393056
    },
    "Akron": {
        "title": "Akron",
        "lat": 41.075,
        "lng": -81.517
    },
    "Akrotiri": {
        "title": "Akrotiri",
        "lat": 36.359,
        "lng": 25.397
    },
    "Aksa": {
        "title": "Aksa",
        "lat": 19.177275,
        "lng": 72.794967
    },
    "Aksaray": {
        "title": "Aksaray",
        "lat": 38.366666666667,
        "lng": 34.033333333333
    },
    "Axum": {
        "title": "Axum",
        "lat": 14.1167,
        "lng": 38.7333
    },
    "Aksu-Zhabagly": {
        "title": "Aksu-Zhabagly",
        "lat": 42.37894444,
        "lng": 70.60972222
    },
    "Aktau": {
        "title": "Aktau",
        "lat": 43.65,
        "lng": 51.15
    },
    "Aktobe": {
        "title": "Aktobe",
        "lat": 50.26666667,
        "lng": 57.21666667
    },
    "Akumal": {
        "title": "Akumal",
        "lat": 20.41667,
        "lng": -87.3
    },
    "Akureyri": {
        "title": "Akureyri",
        "lat": 65.6833,
        "lng": -18.1
    },
    "Akyaka": {
        "title": "Akyaka",
        "lat": 37.05,
        "lng": 28.3167
    },
    "Alabama": {
        "title": "Alabama",
        "lat": 32.7,
        "lng": -86.7
    },
    "Alaçatı": {
        "title": "Alaçatı",
        "lat": 38.2813889,
        "lng": 26.3741667
    },
    "Aladdin": {
        "title": "Aladdin",
        "lat": 44.64,
        "lng": -104.18361
    },
    "Alagoas": {
        "title": "Alagoas",
        "lat": -9.57,
        "lng": -36.55
    },
    "Alaigne": {
        "title": "Alaigne",
        "lat": 43.1,
        "lng": 2.0833
    },
    "Al Ain": {
        "title": "Al Ain",
        "lat": 24.22274,
        "lng": 55.7518
    },
    "Alajuela": {
        "title": "Alajuela",
        "lat": 10.016666666667,
        "lng": -84.216666666667
    },
    "Alameda": {
        "title": "Alameda",
        "lat": 37.7561,
        "lng": -122.2744
    },
    "Alameda County": {
        "title": "Alameda County",
        "lat": 37.69,
        "lng": -121.94
    },
    "Alamo (California)": {
        "title": "Alamo (California)",
        "lat": 37.858,
        "lng": -121.997
    },
    "Alamogordo": {
        "title": "Alamogordo",
        "lat": 32.900412,
        "lng": -105.960479
    },
    "Álamos": {
        "title": "Álamos",
        "lat": 27.0275,
        "lng": -108.94
    },
    "Alamosa": {
        "title": "Alamosa",
        "lat": 37.4689,
        "lng": -105.8736
    },
    "Alampur (Telangana)": {
        "title": "Alampur (Telangana)",
        "lat": 15.887,
        "lng": 78.131
    },
    "Alang": {
        "title": "Alang",
        "lat": 21.412082,
        "lng": 72.202749
    },
    "Alanya": {
        "title": "Alanya",
        "lat": 36.55,
        "lng": 32
    },
    "Alappuzha": {
        "title": "Alappuzha",
        "lat": 9.49512,
        "lng": 76.33163
    },
    "Alaska": {
        "title": "Alaska",
        "lat": 64,
        "lng": -152
    },
    "Alausi": {
        "title": "Alausi",
        "lat": -2.2,
        "lng": -78.8333
    },
    "Alaverdi": {
        "title": "Alaverdi",
        "lat": 41.095,
        "lng": 44.661
    },
    "Alba": {
        "title": "Alba",
        "lat": 44.70083333,
        "lng": 8.035277778
    },
    "Alba County": {
        "title": "Alba County",
        "lat": 46.1333,
        "lng": 23.5333
    },
    "Alba Iulia": {
        "title": "Alba Iulia",
        "lat": 46.076388888889,
        "lng": 23.572777777778
    },
    "Albania": {
        "title": "Albania",
        "lat": 41.3237,
        "lng": 19.8203
    },
    "Prokletije": {
        "title": "Prokletije",
        "lat": 42.441667,
        "lng": 19.8125
    },
    "Albanian Riviera": {
        "title": "Albanian Riviera",
        "lat": 40.07261,
        "lng": 19.76385
    },
    "Albany (California)": {
        "title": "Albany (California)",
        "lat": 37.886944,
        "lng": -122.297778
    },
    "Albany (Georgia)": {
        "title": "Albany (Georgia)",
        "lat": 31.582222,
        "lng": -84.165556
    },
    "Albany (New York)": {
        "title": "Albany (New York)",
        "lat": 42.6525,
        "lng": -73.75611
    },
    "Albany (Oregon)": {
        "title": "Albany (Oregon)",
        "lat": 44.6303,
        "lng": -123.0961
    },
    "Albay": {
        "title": "Albay",
        "lat": 13.234,
        "lng": 123.7
    },
    "Alberobello": {
        "title": "Alberobello",
        "lat": 40.7833,
        "lng": 17.2333
    },
    "Alberta": {
        "title": "Alberta",
        "lat": 55.02,
        "lng": -115
    },
    "Alberta Rockies": {
        "title": "Alberta Rockies",
        "lat": 52.08,
        "lng": -116.93
    },
    "Albert Lea": {
        "title": "Albert Lea",
        "lat": 43.647861,
        "lng": -93.36875
    },
    "Albia": {
        "title": "Albia",
        "lat": 41.026667,
        "lng": -92.805278
    },
    "Albion (California)": {
        "title": "Albion (California)",
        "lat": 39.22361,
        "lng": -123.76861
    },
    "Alblasserwaard-Drechtsteden": {
        "title": "Alblasserwaard-Drechtsteden",
        "lat": 51.87903,
        "lng": 4.88617
    },
    "Albufeira": {
        "title": "Albufeira",
        "lat": 37.083333,
        "lng": -8.25
    },
    "Albuquerque": {
        "title": "Albuquerque",
        "lat": 35.08444,
        "lng": -106.65111
    },
    "Alès": {
        "title": "Alès",
        "lat": 44.128055555556,
        "lng": 4.0816666666667
    },
    "Alcala de los Gazules": {
        "title": "Alcala de los Gazules",
        "lat": 36.4618805,
        "lng": -5.7238891
    },
    "Alcamo": {
        "title": "Alcamo",
        "lat": 37.9667,
        "lng": 12.9667
    },
    "Alcântara": {
        "title": "Alcântara",
        "lat": -2.408889,
        "lng": -44.415
    },
    "Alchi": {
        "title": "Alchi",
        "lat": 34.2334,
        "lng": 77.1625
    },
    "Alcobaça": {
        "title": "Alcobaça",
        "lat": 39.552401,
        "lng": -8.976602
    },
    "Aldeburgh": {
        "title": "Aldeburgh",
        "lat": 52.15,
        "lng": 1.6
    },
    "Alderney": {
        "title": "Alderney",
        "lat": 49.714444444444,
        "lng": -2.2052777777778
    },
    "Aldershot": {
        "title": "Aldershot",
        "lat": 51.247,
        "lng": -0.7598
    },
    "Al Diwaniyah": {
        "title": "Al Diwaniyah",
        "lat": 31.989167,
        "lng": 44.924722
    },
    "Alegría (El Salvador)": {
        "title": "Alegría (El Salvador)",
        "lat": 13.5,
        "lng": -88.4833
    },
    "Alentejo": {
        "title": "Alentejo",
        "lat": 38,
        "lng": -8
    },
    "Aleppo": {
        "title": "Aleppo",
        "lat": 36.2167,
        "lng": 37.1667
    },
    "Alessandria": {
        "title": "Alessandria",
        "lat": 44.9166666667,
        "lng": 8.61666666667
    },
    "Aletai": {
        "title": "Aletai",
        "lat": 47.8667,
        "lng": 88.1167
    },
    "Aleutian Islands": {
        "title": "Aleutian Islands",
        "lat": 52,
        "lng": -174
    },
    "Alexander": {
        "title": "Alexander",
        "lat": 47.8425,
        "lng": -103.642778
    },
    "Alexander Bay": {
        "title": "Alexander Bay",
        "lat": -28.5953,
        "lng": 16.484813888889
    },
    "Alexandra (New Zealand)": {
        "title": "Alexandra (New Zealand)",
        "lat": -45.25495,
        "lng": 169.37897
    },
    "Alexandria": {
        "title": "Alexandria",
        "lat": 31.19929,
        "lng": 29.90925
    },
    "Alexandria (Louisiana)": {
        "title": "Alexandria (Louisiana)",
        "lat": 31.292778,
        "lng": -92.459167
    },
    "Alexandria (Minnesota)": {
        "title": "Alexandria (Minnesota)",
        "lat": 45.885233,
        "lng": -95.377222
    },
    "Alexandria (Virginia)": {
        "title": "Alexandria (Virginia)",
        "lat": 38.804722,
        "lng": -77.047222
    },
    "Alexandria Bay": {
        "title": "Alexandria Bay",
        "lat": 44.335833,
        "lng": -75.914722
    },
    "Alexandroupolis": {
        "title": "Alexandroupolis",
        "lat": 40.85,
        "lng": 25.8667
    },
    "Alexandrov": {
        "title": "Alexandrov",
        "lat": 56.391667,
        "lng": 38.713889
    },
    "Alexandrovsk-Sakhalinsky": {
        "title": "Alexandrovsk-Sakhalinsky",
        "lat": 50.9,
        "lng": 142.15
    },
    "Alfred (Maine)": {
        "title": "Alfred (Maine)",
        "lat": 43.47639,
        "lng": -70.71833
    },
    "Algarve": {
        "title": "Algarve",
        "lat": 37.014444,
        "lng": -7.935278
    },
    "Algeciras": {
        "title": "Algeciras",
        "lat": 36.1275,
        "lng": -5.453889
    },
    "Algeria": {
        "title": "Algeria",
        "lat": 28,
        "lng": 1
    },
    "Alghero": {
        "title": "Alghero",
        "lat": 40.5667,
        "lng": 8.3167
    },
    "Algiers": {
        "title": "Algiers",
        "lat": 36.7,
        "lng": 3.2167
    },
    "Algodones": {
        "title": "Algodones",
        "lat": 35.38056,
        "lng": -106.47917
    },
    "Algona": {
        "title": "Algona",
        "lat": 43.070278,
        "lng": -94.229722
    },
    "Algonquin Provincial Park": {
        "title": "Algonquin Provincial Park",
        "lat": 45.8,
        "lng": -78.7
    },
    "Alhama de Granada": {
        "title": "Alhama de Granada",
        "lat": 37,
        "lng": -3.98
    },
    "Alhambra (California)": {
        "title": "Alhambra (California)",
        "lat": 34.081944,
        "lng": -118.135
    },
    "Al Hudayda": {
        "title": "Al Hudayda",
        "lat": 14.8,
        "lng": 42.95
    },
    "Alibag": {
        "title": "Alibag",
        "lat": 18.6555,
        "lng": 72.8679
    },
    "Alicante": {
        "title": "Alicante",
        "lat": 38.345278,
        "lng": -0.483056
    },
    "Alice (North Dakota)": {
        "title": "Alice (North Dakota)",
        "lat": 46.762778,
        "lng": -97.555
    },
    "Alice (Texas)": {
        "title": "Alice (Texas)",
        "lat": 27.75222,
        "lng": -98.06972
    },
    "Alice Springs": {
        "title": "Alice Springs",
        "lat": -23.7,
        "lng": 133.87
    },
    "Aligarh": {
        "title": "Aligarh",
        "lat": 27.88,
        "lng": 78.08
    },
    "Alingsås": {
        "title": "Alingsås",
        "lat": 57.9333,
        "lng": 12.5333
    },
    "Alishan": {
        "title": "Alishan",
        "lat": 23.516666666667,
        "lng": 120.8
    },
    "Aliso Viejo": {
        "title": "Aliso Viejo",
        "lat": 33.565,
        "lng": -117.72722
    },
    "Aliwal North": {
        "title": "Aliwal North",
        "lat": -30.7,
        "lng": 26.7
    },
    "Alix": {
        "title": "Alix",
        "lat": 52.39949,
        "lng": -113.18665
    },
    "Northwestern Iraq": {
        "title": "Northwestern Iraq",
        "lat": 34.53375,
        "lng": 43.48374
    },
    "Al Khor": {
        "title": "Al Khor",
        "lat": 25.69,
        "lng": 51.51
    },
    "Alkmaar": {
        "title": "Alkmaar",
        "lat": 52.632,
        "lng": 4.751
    },
    "Allahabad": {
        "title": "Allahabad",
        "lat": 25.44405,
        "lng": 81.84454
    },
    "Allamuchy": {
        "title": "Allamuchy",
        "lat": 40.92167,
        "lng": -74.81028
    },
    "Allegan": {
        "title": "Allegan",
        "lat": 42.52917,
        "lng": -85.85528
    },
    "Allegany County (Maryland)": {
        "title": "Allegany County (Maryland)",
        "lat": 39.63,
        "lng": -78.69
    },
    "Allegany County (New York)": {
        "title": "Allegany County (New York)",
        "lat": 42.25,
        "lng": -78.04
    },
    "Alleghenies and Susquehanna Valley": {
        "title": "Alleghenies and Susquehanna Valley",
        "lat": 38.699722,
        "lng": -79.532778
    },
    "Allegheny County": {
        "title": "Allegheny County",
        "lat": 40.47,
        "lng": -79.98
    },
    "Allendale": {
        "title": "Allendale",
        "lat": 42.972,
        "lng": -85.95351
    },
    "Allen Park": {
        "title": "Allen Park",
        "lat": 42.2575,
        "lng": -83.21111
    },
    "Allentown": {
        "title": "Allentown",
        "lat": 40.601667,
        "lng": -75.477222
    },
    "Allentown (New Jersey)": {
        "title": "Allentown (New Jersey)",
        "lat": 40.17778,
        "lng": -74.58361
    },
    "Allgäu": {
        "title": "Allgäu",
        "lat": 47.75,
        "lng": 10.1667
    },
    "Alliance (Ohio)": {
        "title": "Alliance (Ohio)",
        "lat": 40.91528,
        "lng": -81.10583
    },
    "Allinge-Sandvig": {
        "title": "Allinge-Sandvig",
        "lat": 55.2769,
        "lng": 14.7994
    },
    "Grande Salvador": {
        "title": "Grande Salvador",
        "lat": -12.6978,
        "lng": -38.3239
    },
    "Allyn": {
        "title": "Allyn",
        "lat": 47.3854,
        "lng": -122.8281
    },
    "Alma": {
        "title": "Alma",
        "lat": 43.37889,
        "lng": -84.65972
    },
    "Alma (Arkansas)": {
        "title": "Alma (Arkansas)",
        "lat": 35.488056,
        "lng": -94.220833
    },
    "Almada": {
        "title": "Almada",
        "lat": 38.6804,
        "lng": -9.1559
    },
    "Almaty": {
        "title": "Almaty",
        "lat": 43.2775,
        "lng": 76.895833
    },
    "Almaty Province": {
        "title": "Almaty Province",
        "lat": 45,
        "lng": 78
    },
    "Almere": {
        "title": "Almere",
        "lat": 52.3667,
        "lng": 5.2167
    },
    "Almería": {
        "title": "Almería",
        "lat": 36.8333,
        "lng": -2.45
    },
    "Almería (province)": {
        "title": "Almería (province)",
        "lat": 37.1666,
        "lng": -2.333
    },
    "Almolonga": {
        "title": "Almolonga",
        "lat": 14.8122,
        "lng": -91.4944
    },
    "Almonaster la Real": {
        "title": "Almonaster la Real",
        "lat": 37.8732724,
        "lng": -6.7861298
    },
    "Almonte (Ontario)": {
        "title": "Almonte (Ontario)",
        "lat": 45.22629,
        "lng": -76.19452
    },
    "Almora": {
        "title": "Almora",
        "lat": 29.62,
        "lng": 79.67
    },
    "Al Mukalla": {
        "title": "Al Mukalla",
        "lat": 14.55,
        "lng": 49.1167
    },
    "Almyros": {
        "title": "Almyros",
        "lat": 39.18,
        "lng": 22.76
    },
    "Alnmouth": {
        "title": "Alnmouth",
        "lat": 55.38837,
        "lng": -1.61036
    },
    "Alnwick": {
        "title": "Alnwick",
        "lat": 55.41343,
        "lng": -1.70723
    },
    "Aloha": {
        "title": "Aloha",
        "lat": 45.49417,
        "lng": -122.86694
    },
    "Along the Magnificent Mile": {
        "title": "Along the Magnificent Mile",
        "lat": 41.89099,
        "lng": -87.62413
    },
    "Alonissos": {
        "title": "Alonissos",
        "lat": 39.21044,
        "lng": 23.91483
    },
    "Alor Archipelago": {
        "title": "Alor Archipelago",
        "lat": -8.25,
        "lng": 124.75
    },
    "Alor Setar": {
        "title": "Alor Setar",
        "lat": 6.1167,
        "lng": 100.3667
    },
    "Alotau": {
        "title": "Alotau",
        "lat": -10.316666666667,
        "lng": 150.43333333333
    },
    "Alpe d'Huez": {
        "title": "Alpe d'Huez",
        "lat": 45.09,
        "lng": 6.07
    },
    "Alpena (Michigan)": {
        "title": "Alpena (Michigan)",
        "lat": 45.061667,
        "lng": -83.432778
    },
    "Alpes-de-Haute-Provence": {
        "title": "Alpes-de-Haute-Provence",
        "lat": 44,
        "lng": 6.1667
    },
    "Alpes-Maritimes": {
        "title": "Alpes-Maritimes",
        "lat": 43.8333,
        "lng": 7.1667
    },
    "Alpharetta": {
        "title": "Alpharetta",
        "lat": 34.073333,
        "lng": -84.281111
    },
    "Alphen aan den Rijn": {
        "title": "Alphen aan den Rijn",
        "lat": 52.1333,
        "lng": 4.65
    },
    "Alpine (Texas)": {
        "title": "Alpine (Texas)",
        "lat": 30.360833,
        "lng": -103.665556
    },
    "Alpine (Wyoming)": {
        "title": "Alpine (Wyoming)",
        "lat": 43.161111,
        "lng": -111.017778
    },
    "Alpine County": {
        "title": "Alpine County",
        "lat": 38.58,
        "lng": -119.8
    },
    "Alps": {
        "title": "Alps",
        "lat": 46,
        "lng": 10
    },
    "Alquezar": {
        "title": "Alquezar",
        "lat": 42.173888888889,
        "lng": 0.027222222222222
    },
    "Alresford (Hampshire)": {
        "title": "Alresford (Hampshire)",
        "lat": 51.0898,
        "lng": -1.1633
    },
    "Alsen": {
        "title": "Alsen",
        "lat": 48.6275,
        "lng": -98.705833
    },
    "Alston": {
        "title": "Alston",
        "lat": 54.81,
        "lng": -2.441
    },
    "Alta": {
        "title": "Alta",
        "lat": 69.976667,
        "lng": 23.295833
    },
    "Alta (Utah)": {
        "title": "Alta (Utah)",
        "lat": 40.580833,
        "lng": -111.637222
    },
    "Altai (Kazakhstan)": {
        "title": "Altai (Kazakhstan)",
        "lat": 49.2,
        "lng": 83.2
    },
    "Altai (Mongolia)": {
        "title": "Altai (Mongolia)",
        "lat": 46.37277778,
        "lng": 96.25722222
    },
    "Altai Krai": {
        "title": "Altai Krai",
        "lat": 52.7667,
        "lng": 82.6167
    },
    "Altai Republic": {
        "title": "Altai Republic",
        "lat": 51.01375,
        "lng": 87.19849
    },
    "Altai Tavan Bogd National Park": {
        "title": "Altai Tavan Bogd National Park",
        "lat": 48.49,
        "lng": 88.87
    },
    "Altamonte Springs": {
        "title": "Altamonte Springs",
        "lat": 28.66111,
        "lng": -81.36556
    },
    "Altar Desert": {
        "title": "Altar Desert",
        "lat": 31.928,
        "lng": -114.031
    },
    "Altavas": {
        "title": "Altavas",
        "lat": 11.533,
        "lng": 122.483
    },
    "Alter do Chão": {
        "title": "Alter do Chão",
        "lat": -2.5167,
        "lng": -54.95
    },
    "Altin Depe": {
        "title": "Altin Depe",
        "lat": 36.857917,
        "lng": 60.432375
    },
    "Altiplano (Bolivia)": {
        "title": "Altiplano (Bolivia)",
        "lat": -16.0036,
        "lng": -69.6533
    },
    "Altiplano (Peru)": {
        "title": "Altiplano (Peru)",
        "lat": -15.34,
        "lng": -70.49
    },
    "Alton (Illinois)": {
        "title": "Alton (Illinois)",
        "lat": 38.900556,
        "lng": -90.159722
    },
    "Alton Towers": {
        "title": "Alton Towers",
        "lat": 52.99,
        "lng": -1.89
    },
    "Altoona (Pennsylvania)": {
        "title": "Altoona (Pennsylvania)",
        "lat": 40.51861,
        "lng": -78.39472
    },
    "Altoona (Wisconsin)": {
        "title": "Altoona (Wisconsin)",
        "lat": 44.804167,
        "lng": -91.442222
    },
    "Alto Paraíso de Goiás": {
        "title": "Alto Paraíso de Goiás",
        "lat": -14.1167,
        "lng": -47.5167
    },
    "Altrincham": {
        "title": "Altrincham",
        "lat": 53.3839,
        "lng": -2.3547
    },
    "Altun Ha": {
        "title": "Altun Ha",
        "lat": 17.76395,
        "lng": -88.347061
    },
    "Alturas": {
        "title": "Alturas",
        "lat": 41.487222,
        "lng": -120.5425
    },
    "Altus (Arkansas)": {
        "title": "Altus (Arkansas)",
        "lat": 35.454722,
        "lng": -93.771944
    },
    "Altus (Oklahoma)": {
        "title": "Altus (Oklahoma)",
        "lat": 34.63806,
        "lng": -99.33389
    },
    "Alupka": {
        "title": "Alupka",
        "lat": 44.4167,
        "lng": 34.05
    },
    "Alushta": {
        "title": "Alushta",
        "lat": 44.666667,
        "lng": 34.416667
    },
    "Aluva": {
        "title": "Aluva",
        "lat": 10.1167,
        "lng": 76.3667
    },
    "Alva": {
        "title": "Alva",
        "lat": 36.805,
        "lng": -98.66639
    },
    "Alvin": {
        "title": "Alvin",
        "lat": 29.42389,
        "lng": -95.24417
    },
    "Alwar": {
        "title": "Alwar",
        "lat": 27.566666666667,
        "lng": 76.616666666667
    },
    "Alytus": {
        "title": "Alytus",
        "lat": 54.4,
        "lng": 24.05
    },
    "Amacayacu National Park": {
        "title": "Amacayacu National Park",
        "lat": -3.4833,
        "lng": -70.2
    },
    "Amador County": {
        "title": "Amador County",
        "lat": 38.44,
        "lng": -120.66
    },
    "Amagasaki": {
        "title": "Amagasaki",
        "lat": 34.733333333333,
        "lng": 135.4
    },
    "Amaicha del Valle": {
        "title": "Amaicha del Valle",
        "lat": -26.6,
        "lng": -65.9167
    },
    "Amakusa": {
        "title": "Amakusa",
        "lat": 32.4667,
        "lng": 130.2
    },
    "Amalfi": {
        "title": "Amalfi",
        "lat": 40.6333,
        "lng": 14.6
    },
    "Amalfi Coast": {
        "title": "Amalfi Coast",
        "lat": 40.6333,
        "lng": 14.6
    },
    "Amami Islands": {
        "title": "Amami Islands",
        "lat": 27.83333,
        "lng": 129
    },
    "Amami Oshima": {
        "title": "Amami Oshima",
        "lat": 28.283333333333,
        "lng": 129.36666666667
    },
    "Amana Colonies": {
        "title": "Amana Colonies",
        "lat": 41.791,
        "lng": -91.915
    },
    "Amanohashidate": {
        "title": "Amanohashidate",
        "lat": 35.5696,
        "lng": 135.192
    },
    "Amanzimtoti": {
        "title": "Amanzimtoti",
        "lat": -30.065194,
        "lng": 30.878148
    },
    "Amapá": {
        "title": "Amapá",
        "lat": 1.3833,
        "lng": -51.8167
    },
    "Amarante": {
        "title": "Amarante",
        "lat": 41.27,
        "lng": -8.07
    },
    "Amarapura": {
        "title": "Amarapura",
        "lat": 21.9,
        "lng": 96.05
    },
    "Amarillo": {
        "title": "Amarillo",
        "lat": 35.199167,
        "lng": -101.845278
    },
    "Amarna": {
        "title": "Amarna",
        "lat": 27.661667,
        "lng": 30.905556
    },
    "Amasra": {
        "title": "Amasra",
        "lat": 41.749444,
        "lng": 32.386389
    },
    "Amasya": {
        "title": "Amasya",
        "lat": 40.65,
        "lng": 35.8333
    },
    "Amazônia National Park": {
        "title": "Amazônia National Park",
        "lat": -4.4394,
        "lng": -56.8403
    },
    "Amazon (Ecuador)": {
        "title": "Amazon (Ecuador)",
        "lat": -0.8,
        "lng": -76.9
    },
    "Amazonas (Brazil)": {
        "title": "Amazonas (Brazil)",
        "lat": -5,
        "lng": -63
    },
    "Amazonia": {
        "title": "Amazonia",
        "lat": -3.16,
        "lng": -60.03
    },
    "Amazonia (Colombia)": {
        "title": "Amazonia (Colombia)",
        "lat": 1,
        "lng": -72
    },
    "Ambaji": {
        "title": "Ambaji",
        "lat": 24.33,
        "lng": 72.85
    },
    "Ambala": {
        "title": "Ambala",
        "lat": 30.37861111,
        "lng": 76.7725
    },
    "Ambala Division": {
        "title": "Ambala Division",
        "lat": 30.37818,
        "lng": 76.7767
    },
    "Ambarawa": {
        "title": "Ambarawa",
        "lat": -7.266667,
        "lng": 110.4
    },
    "Ambergris Caye": {
        "title": "Ambergris Caye",
        "lat": 18.013947,
        "lng": -87.931039
    },
    "Amble": {
        "title": "Amble",
        "lat": 55.3306,
        "lng": -1.5783
    },
    "Ambleside": {
        "title": "Ambleside",
        "lat": 54.4252,
        "lng": -2.9626
    },
    "Amboise": {
        "title": "Amboise",
        "lat": 47.4042,
        "lng": 0.98
    },
    "Amboli": {
        "title": "Amboli",
        "lat": 15.9625,
        "lng": 73.997777777778
    },
    "Ambon": {
        "title": "Ambon",
        "lat": -3.638056,
        "lng": 128.11722
    },
    "Amboseli National Park": {
        "title": "Amboseli National Park",
        "lat": -2.6414,
        "lng": 37.2481
    },
    "Ambositra": {
        "title": "Ambositra",
        "lat": -20.5167,
        "lng": 47.25
    },
    "Amboy": {
        "title": "Amboy",
        "lat": 34.56,
        "lng": -115.75
    },
    "Amed": {
        "title": "Amed",
        "lat": -8.33461,
        "lng": 115.64089
    },
    "Ameland": {
        "title": "Ameland",
        "lat": 53.44922,
        "lng": 5.79941
    },
    "Amelia Island": {
        "title": "Amelia Island",
        "lat": 30.669444,
        "lng": -81.461667
    },
    "Amelinghausen": {
        "title": "Amelinghausen",
        "lat": 53.126667,
        "lng": 10.214722
    },
    "Amenia (New York)": {
        "title": "Amenia (New York)",
        "lat": 41.84917,
        "lng": -73.55667
    },
    "American Canyon": {
        "title": "American Canyon",
        "lat": 38.1681,
        "lng": -122.2525
    },
    "American Samoa": {
        "title": "American Samoa",
        "lat": -14.3,
        "lng": -170.7
    },
    "Amersfoort": {
        "title": "Amersfoort",
        "lat": 52.15,
        "lng": 5.38
    },
    "Amersham": {
        "title": "Amersham",
        "lat": 51.6667,
        "lng": -0.63333
    },
    "Ames": {
        "title": "Ames",
        "lat": 42.027,
        "lng": -93.628
    },
    "Amesbury (Massachusetts)": {
        "title": "Amesbury (Massachusetts)",
        "lat": 42.85833,
        "lng": -70.93
    },
    "Amherst (Massachusetts)": {
        "title": "Amherst (Massachusetts)",
        "lat": 42.38028,
        "lng": -72.52306
    },
    "Amherst (New Hampshire)": {
        "title": "Amherst (New Hampshire)",
        "lat": 42.861389,
        "lng": -71.625278
    },
    "Amherst (Nova Scotia)": {
        "title": "Amherst (Nova Scotia)",
        "lat": 45.82425,
        "lng": -64.20479
    },
    "Amherst (Ohio)": {
        "title": "Amherst (Ohio)",
        "lat": 41.3833,
        "lng": -82.2167
    },
    "Amherst (Virginia)": {
        "title": "Amherst (Virginia)",
        "lat": 37.58528,
        "lng": -79.05139
    },
    "Amidon": {
        "title": "Amidon",
        "lat": 46.483056,
        "lng": -103.322222
    },
    "Amiens": {
        "title": "Amiens",
        "lat": 49.892,
        "lng": 2.299
    },
    "Amityville": {
        "title": "Amityville",
        "lat": 40.671667,
        "lng": -73.415
    },
    "Amizmiz": {
        "title": "Amizmiz",
        "lat": 31.2167,
        "lng": -8.25
    },
    "Amman": {
        "title": "Amman",
        "lat": 31.95114,
        "lng": 35.92409
    },
    "Ammoudia": {
        "title": "Ammoudia",
        "lat": 39.2333,
        "lng": 20.4833
    },
    "Amnat Charoen": {
        "title": "Amnat Charoen",
        "lat": 15.85,
        "lng": 104.6333
    },
    "Amorgos": {
        "title": "Amorgos",
        "lat": 36.8333,
        "lng": 25.9
    },
    "Ampana": {
        "title": "Ampana",
        "lat": -0.87,
        "lng": 121.583
    },
    "Amparo": {
        "title": "Amparo",
        "lat": -22.7008,
        "lng": -46.7639
    },
    "Amphawa": {
        "title": "Amphawa",
        "lat": 13.4259,
        "lng": 99.9566
    },
    "Amravati": {
        "title": "Amravati",
        "lat": 20.933333333333,
        "lng": 77.75
    },
    "Amritsar": {
        "title": "Amritsar",
        "lat": 31.63409,
        "lng": 74.87371
    },
    "Amstelland": {
        "title": "Amstelland",
        "lat": 52.32443,
        "lng": 4.88892
    },
    "Amsterdam": {
        "title": "Amsterdam",
        "lat": 52.366667,
        "lng": 4.9
    },
    "Amsterdam/Zuidoost": {
        "title": "Amsterdam/Zuidoost",
        "lat": 52.31645,
        "lng": 4.96342
    },
    "Amsterdam/Canal District": {
        "title": "Amsterdam/Canal District",
        "lat": 52.37059,
        "lng": 4.88844
    },
    "Amsterdam/Oost": {
        "title": "Amsterdam/Oost",
        "lat": 52.35967,
        "lng": 4.96239
    },
    "Amsterdam/Jordaan": {
        "title": "Amsterdam/Jordaan",
        "lat": 52.375953,
        "lng": 4.881583
    },
    "Amsterdam/Noord": {
        "title": "Amsterdam/Noord",
        "lat": 52.39991,
        "lng": 4.9593
    },
    "Amsterdam/Binnenstad": {
        "title": "Amsterdam/Binnenstad",
        "lat": 52.37101,
        "lng": 4.90012
    },
    "Amsterdam/Plantage": {
        "title": "Amsterdam/Plantage",
        "lat": 52.36792,
        "lng": 4.91535
    },
    "Amsterdam/Zuid": {
        "title": "Amsterdam/Zuid",
        "lat": 52.34273,
        "lng": 4.88136
    },
    "Amsterdam/West": {
        "title": "Amsterdam/West",
        "lat": 52.36963,
        "lng": 4.84549
    },
    "Amuntai": {
        "title": "Amuntai",
        "lat": -2.416604,
        "lng": 115.239098
    },
    "Amur Oblast": {
        "title": "Amur Oblast",
        "lat": 53.55,
        "lng": 127.833
    },
    "Anaco": {
        "title": "Anaco",
        "lat": 9.4333333333333,
        "lng": -64.466666666667
    },
    "Anaconda": {
        "title": "Anaconda",
        "lat": 46.1333,
        "lng": -112.9333
    },
    "Anacortes": {
        "title": "Anacortes",
        "lat": 48.501944,
        "lng": -122.623611
    },
    "Anadarko": {
        "title": "Anadarko",
        "lat": 35.0725,
        "lng": -98.24361
    },
    "Anadyr": {
        "title": "Anadyr",
        "lat": 64.733333,
        "lng": 177.5
    },
    "Anafi": {
        "title": "Anafi",
        "lat": 36.35,
        "lng": 25.7667
    },
    "Anagni": {
        "title": "Anagni",
        "lat": 41.7333,
        "lng": 13.15
    },
    "Anaheim": {
        "title": "Anaheim",
        "lat": 33.83,
        "lng": -117.92
    },
    "Anaheim Hills": {
        "title": "Anaheim Hills",
        "lat": 33.84853,
        "lng": -117.77678
    },
    "Anakao": {
        "title": "Anakao",
        "lat": -23.6667,
        "lng": 43.65
    },
    "Anaktuvuk Pass": {
        "title": "Anaktuvuk Pass",
        "lat": 68.143056,
        "lng": -151.733611
    },
    "Anamoose": {
        "title": "Anamoose",
        "lat": 47.8825,
        "lng": -100.24111
    },
    "Anamur": {
        "title": "Anamur",
        "lat": 36.0167,
        "lng": 32.8
    },
    "Anand": {
        "title": "Anand",
        "lat": 22.5667,
        "lng": 72.9333
    },
    "Anantapur": {
        "title": "Anantapur",
        "lat": 14.68189,
        "lng": 77.60059
    },
    "Anantnag": {
        "title": "Anantnag",
        "lat": 33.73,
        "lng": 75.15
    },
    "Anau": {
        "title": "Anau",
        "lat": 37.8833,
        "lng": 58.5333
    },
    "Anavilhanas": {
        "title": "Anavilhanas",
        "lat": -2.394722,
        "lng": -60.920556
    },
    "Anchorage": {
        "title": "Anchorage",
        "lat": 61.222638,
        "lng": -149.885083
    },
    "Anchor Point": {
        "title": "Anchor Point",
        "lat": 59.77667,
        "lng": -151.83139
    },
    "Ancona": {
        "title": "Ancona",
        "lat": 43.616944,
        "lng": 13.516667
    },
    "Ancona (province)": {
        "title": "Ancona (province)",
        "lat": 43.55,
        "lng": 13.4
    },
    "Ancud": {
        "title": "Ancud",
        "lat": -41.8667,
        "lng": -73.8333
    },
    "Andahuaylas": {
        "title": "Andahuaylas",
        "lat": -13.65,
        "lng": -73.3833
    },
    "Andahuaylillas": {
        "title": "Andahuaylillas",
        "lat": -13.6711,
        "lng": -71.6739
    },
    "Andalusia": {
        "title": "Andalusia",
        "lat": 37.46,
        "lng": -4.16
    },
    "Andaman and Nicobar Islands": {
        "title": "Andaman and Nicobar Islands",
        "lat": 12,
        "lng": 92.75
    },
    "Andean Highlands": {
        "title": "Andean Highlands",
        "lat": 3,
        "lng": -74.7
    },
    "Andean Highlands (Ecuador)": {
        "title": "Andean Highlands (Ecuador)",
        "lat": -1,
        "lng": -79
    },
    "Andean Northwest (Argentina)": {
        "title": "Andean Northwest (Argentina)",
        "lat": -26,
        "lng": -66
    },
    "Andechs": {
        "title": "Andechs",
        "lat": 47.9833,
        "lng": 11.1833
    },
    "Andermatt": {
        "title": "Andermatt",
        "lat": 46.6167,
        "lng": 8.5833
    },
    "Anderson (California)": {
        "title": "Anderson (California)",
        "lat": 40.4483,
        "lng": -122.2978
    },
    "Anderson (Indiana)": {
        "title": "Anderson (Indiana)",
        "lat": 40.10528,
        "lng": -85.68028
    },
    "Anderson (South Carolina)": {
        "title": "Anderson (South Carolina)",
        "lat": 34.50333,
        "lng": -82.65
    },
    "Andes": {
        "title": "Andes",
        "lat": -32.6528,
        "lng": -70.0111
    },
    "Andes (Venezuela)": {
        "title": "Andes (Venezuela)",
        "lat": 7.75,
        "lng": -72.216667
    },
    "Andhra Pradesh": {
        "title": "Andhra Pradesh",
        "lat": 16,
        "lng": 79
    },
    "Andijan": {
        "title": "Andijan",
        "lat": 40.7833,
        "lng": 72.3333
    },
    "Andino": {
        "title": "Andino",
        "lat": 5,
        "lng": -73
    },
    "Andong": {
        "title": "Andong",
        "lat": 36.5667,
        "lng": 128.7167
    },
    "Andorra": {
        "title": "Andorra",
        "lat": 42.5,
        "lng": 1.5167
    },
    "Andorra la Vella": {
        "title": "Andorra la Vella",
        "lat": 42.5,
        "lng": 1.5167
    },
    "Andover (Massachusetts)": {
        "title": "Andover (Massachusetts)",
        "lat": 42.658333,
        "lng": -71.1375
    },
    "Andover (Maine)": {
        "title": "Andover (Maine)",
        "lat": 44.63556,
        "lng": -70.75111
    },
    "Andros": {
        "title": "Andros",
        "lat": 37.8333,
        "lng": 24.9333
    },
    "Androscoggin County": {
        "title": "Androscoggin County",
        "lat": 44.17,
        "lng": -70.21
    },
    "Anegada": {
        "title": "Anegada",
        "lat": 18.733333,
        "lng": -64.333333
    },
    "Anerdam Wildlife Sanctuary": {
        "title": "Anerdam Wildlife Sanctuary",
        "lat": 17.78019,
        "lng": 73.70346
    },
    "Aneta": {
        "title": "Aneta",
        "lat": 47.67944,
        "lng": -97.98806
    },
    "Anga": {
        "title": "Anga",
        "lat": 25.25,
        "lng": 87
    },
    "Angarsk": {
        "title": "Angarsk",
        "lat": 52.5667,
        "lng": 103.8167
    },
    "Angeles": {
        "title": "Angeles",
        "lat": 15.16056,
        "lng": 120.58641
    },
    "Angeles National Forest": {
        "title": "Angeles National Forest",
        "lat": 34.3333,
        "lng": -118.133
    },
    "Angel Fire": {
        "title": "Angel Fire",
        "lat": 36.39306,
        "lng": -105.285
    },
    "Angels Camp": {
        "title": "Angels Camp",
        "lat": 38.068333,
        "lng": -120.539722
    },
    "Angers": {
        "title": "Angers",
        "lat": 47.473612,
        "lng": -0.554167
    },
    "Angkor Archaeological Park": {
        "title": "Angkor Archaeological Park",
        "lat": 13.4333,
        "lng": 103.8333
    },
    "Angle Inlet": {
        "title": "Angle Inlet",
        "lat": 49.345278,
        "lng": -95.062778
    },
    "Anglesey": {
        "title": "Anglesey",
        "lat": 53.28,
        "lng": -4.375
    },
    "Angola": {
        "title": "Angola",
        "lat": -12.35,
        "lng": 17.35
    },
    "Angola (Indiana)": {
        "title": "Angola (Indiana)",
        "lat": 41.636944,
        "lng": -85.000833
    },
    "Angolemi": {
        "title": "Angolemi",
        "lat": 35.117778,
        "lng": 32.9475
    },
    "Angoori": {
        "title": "Angoori",
        "lat": 33.80082,
        "lng": 73.33948
    },
    "Angoulême": {
        "title": "Angoulême",
        "lat": 45.65,
        "lng": 0.16027778
    },
    "Angra dos Reis": {
        "title": "Angra dos Reis",
        "lat": -23.006667,
        "lng": -44.318056
    },
    "Ang Thong": {
        "title": "Ang Thong",
        "lat": 14.5925,
        "lng": 100.457222
    },
    "Ang Thong National Marine Park": {
        "title": "Ang Thong National Marine Park",
        "lat": 9.54455,
        "lng": 99.67758
    },
    "Angus": {
        "title": "Angus",
        "lat": 56.667,
        "lng": -2.916
    },
    "Anhui": {
        "title": "Anhui",
        "lat": 31.8333,
        "lng": 117
    },
    "Ani": {
        "title": "Ani",
        "lat": 40.5075,
        "lng": 43.572778
    },
    "Aniak": {
        "title": "Aniak",
        "lat": 61.57833,
        "lng": -159.52222
    },
    "Anina": {
        "title": "Anina",
        "lat": 45.091666666667,
        "lng": 21.853333333333
    },
    "Anjouan": {
        "title": "Anjouan",
        "lat": -12.25,
        "lng": 44.4167
    },
    "Anjuna": {
        "title": "Anjuna",
        "lat": 15.5833,
        "lng": 73.7333
    },
    "Ankapur": {
        "title": "Ankapur",
        "lat": 18.77,
        "lng": 78.25
    },
    "Ankara": {
        "title": "Ankara",
        "lat": 39.92876,
        "lng": 32.85204
    },
    "Ankeny": {
        "title": "Ankeny",
        "lat": 41.726667,
        "lng": -93.604167
    },
    "Ankola": {
        "title": "Ankola",
        "lat": 14.667,
        "lng": 74.3
    },
    "Anlong Veng": {
        "title": "Anlong Veng",
        "lat": 14.2333,
        "lng": 104.0833
    },
    "Annaba": {
        "title": "Annaba",
        "lat": 36.9,
        "lng": 7.7667
    },
    "Anna Maria Island": {
        "title": "Anna Maria Island",
        "lat": 27.513,
        "lng": -82.719
    },
    "Annandale (Virginia)": {
        "title": "Annandale (Virginia)",
        "lat": 38.834167,
        "lng": -77.211389
    },
    "Annapolis": {
        "title": "Annapolis",
        "lat": 38.9767,
        "lng": -76.489934
    },
    "Annapolis Valley": {
        "title": "Annapolis Valley",
        "lat": 45,
        "lng": -64.99
    },
    "Annapurna": {
        "title": "Annapurna",
        "lat": 28.583,
        "lng": 83.95
    },
    "Ann Arbor": {
        "title": "Ann Arbor",
        "lat": 42.28201,
        "lng": -83.74843
    },
    "Annavaram": {
        "title": "Annavaram",
        "lat": 17.282,
        "lng": 82.4055
    },
    "Annecy": {
        "title": "Annecy",
        "lat": 45.916,
        "lng": 6.133
    },
    "Annemasse": {
        "title": "Annemasse",
        "lat": 46.1958,
        "lng": 6.2364
    },
    "Annobón": {
        "title": "Annobón",
        "lat": -1.435278,
        "lng": 5.630833
    },
    "Annot": {
        "title": "Annot",
        "lat": 43.9667,
        "lng": 6.6667
    },
    "Annur": {
        "title": "Annur",
        "lat": 11.23,
        "lng": 77.1
    },
    "Ansan": {
        "title": "Ansan",
        "lat": 37.3236111,
        "lng": 126.821944
    },
    "Ansó": {
        "title": "Ansó",
        "lat": 42.75,
        "lng": -0.8167
    },
    "Anshan": {
        "title": "Anshan",
        "lat": 41.1104,
        "lng": 122.99091
    },
    "Anshun": {
        "title": "Anshun",
        "lat": 26.24562,
        "lng": 105.93401
    },
    "Antakya": {
        "title": "Antakya",
        "lat": 36.2,
        "lng": 36.15
    },
    "Antalya": {
        "title": "Antalya",
        "lat": 36.9,
        "lng": 30.6833
    },
    "Antananarivo": {
        "title": "Antananarivo",
        "lat": -18.91,
        "lng": 47.52
    },
    "Antarctic Peninsula": {
        "title": "Antarctic Peninsula",
        "lat": -69,
        "lng": -66
    },
    "Antelope Valley": {
        "title": "Antelope Valley",
        "lat": 34.7514,
        "lng": -118.252
    },
    "Antequera": {
        "title": "Antequera",
        "lat": 37.0167,
        "lng": -4.5667
    },
    "Antequera Region": {
        "title": "Antequera Region",
        "lat": 37.0167,
        "lng": -4.5667
    },
    "Anthem": {
        "title": "Anthem",
        "lat": 33.867222,
        "lng": -112.146944
    },
    "Anti Atlas": {
        "title": "Anti Atlas",
        "lat": 30,
        "lng": -8.5
    },
    "Antibes": {
        "title": "Antibes",
        "lat": 43.5667,
        "lng": 7.1333
    },
    "Anticosti": {
        "title": "Anticosti",
        "lat": 49.5,
        "lng": -63
    },
    "Antigonish": {
        "title": "Antigonish",
        "lat": 45.626522222222,
        "lng": -61.998252777778
    },
    "Antigua": {
        "title": "Antigua",
        "lat": 17.0833,
        "lng": -61.8
    },
    "Antigua and Barbuda": {
        "title": "Antigua and Barbuda",
        "lat": 17.1167,
        "lng": -61.85
    },
    "Antigua Guatemala": {
        "title": "Antigua Guatemala",
        "lat": 14.5667,
        "lng": -90.7333
    },
    "Antioch (California)": {
        "title": "Antioch (California)",
        "lat": 38.005,
        "lng": -121.805833
    },
    "Antioch (Tennessee)": {
        "title": "Antioch (Tennessee)",
        "lat": 36.0607,
        "lng": -86.672
    },
    "Antioquia": {
        "title": "Antioquia",
        "lat": 6.2167,
        "lng": -75.5667
    },
    "Antiparos": {
        "title": "Antiparos",
        "lat": 37.02,
        "lng": 25.05
    },
    "Antipolo": {
        "title": "Antipolo",
        "lat": 14.5833,
        "lng": 121.1667
    },
    "Antique": {
        "title": "Antique",
        "lat": 11.237669444444,
        "lng": 122.09381111111
    },
    "Antler": {
        "title": "Antler",
        "lat": 48.97083,
        "lng": -101.2825
    },
    "Antlers": {
        "title": "Antlers",
        "lat": 34.231111,
        "lng": -95.620833
    },
    "Antofagasta": {
        "title": "Antofagasta",
        "lat": -23.65,
        "lng": -70.4
    },
    "Antonina": {
        "title": "Antonina",
        "lat": -25.1,
        "lng": -48.7167
    },
    "Antrim (town)": {
        "title": "Antrim (town)",
        "lat": 54.7173,
        "lng": -6.2055
    },
    "Antsirabe": {
        "title": "Antsirabe",
        "lat": -19.8667,
        "lng": 47.0333
    },
    "Antsiranana Province": {
        "title": "Antsiranana Province",
        "lat": -13.5833,
        "lng": 49.5
    },
    "Antwerp": {
        "title": "Antwerp",
        "lat": 51.2206,
        "lng": 4.3997
    },
    "Antwerp (province)": {
        "title": "Antwerp (province)",
        "lat": 51.2167,
        "lng": 4.4167
    },
    "Anuradhapura": {
        "title": "Anuradhapura",
        "lat": 8.35,
        "lng": 80.3833
    },
    "Anyang": {
        "title": "Anyang",
        "lat": 36.1,
        "lng": 114.3333
    },
    "Anyer": {
        "title": "Anyer",
        "lat": -6.0667,
        "lng": 105.8833
    },
    "Anza-Borrego Desert State Park": {
        "title": "Anza-Borrego Desert State Park",
        "lat": 33.259167,
        "lng": -116.399167
    },
    "Anzio": {
        "title": "Anzio",
        "lat": 41.44697,
        "lng": 12.62878
    },
    "Anzoátegui": {
        "title": "Anzoátegui",
        "lat": 10.06,
        "lng": -64.71
    },
    "Aogashima": {
        "title": "Aogashima",
        "lat": 32.457777777778,
        "lng": 139.75916666667
    },
    "Aojiang": {
        "title": "Aojiang",
        "lat": 27.59564,
        "lng": 120.55537
    },
    "Aomori": {
        "title": "Aomori",
        "lat": 40.8167,
        "lng": 140.75
    },
    "Aomori (prefecture)": {
        "title": "Aomori (prefecture)",
        "lat": 40.824667,
        "lng": 140.740639
    },
    "Ao Nang": {
        "title": "Ao Nang",
        "lat": 8.031389,
        "lng": 98.8225
    },
    "Aoraki / Mount Cook National Park": {
        "title": "Aoraki / Mount Cook National Park",
        "lat": -43.7333,
        "lng": 170.1
    },
    "Aosta": {
        "title": "Aosta",
        "lat": 45.7333,
        "lng": 7.3167
    },
    "Aosta Valley": {
        "title": "Aosta Valley",
        "lat": 45.716667,
        "lng": 7.36667
    },
    "Apache Junction": {
        "title": "Apache Junction",
        "lat": 33.415,
        "lng": -111.54944
    },
    "Apalachicola": {
        "title": "Apalachicola",
        "lat": 29.7258,
        "lng": -84.9833
    },
    "Apalachicola National Forest": {
        "title": "Apalachicola National Forest",
        "lat": 30.236111,
        "lng": -84.665556
    },
    "Apam": {
        "title": "Apam",
        "lat": 5.279,
        "lng": -0.7397
    },
    "Apamea": {
        "title": "Apamea",
        "lat": 35.418,
        "lng": 36.398
    },
    "Apaneca": {
        "title": "Apaneca",
        "lat": 13.85,
        "lng": -89.8
    },
    "Apeldoorn": {
        "title": "Apeldoorn",
        "lat": 52.2,
        "lng": 5.96
    },
    "Apex": {
        "title": "Apex",
        "lat": 35.73278,
        "lng": -78.85028
    },
    "Apex Mountain Ski Resort": {
        "title": "Apex Mountain Ski Resort",
        "lat": 49.3878,
        "lng": -119.904
    },
    "Aphrodisias": {
        "title": "Aphrodisias",
        "lat": 37.708333,
        "lng": 28.723611
    },
    "Apo Island": {
        "title": "Apo Island",
        "lat": 9.08,
        "lng": 123.27
    },
    "Apo Kayan": {
        "title": "Apo Kayan",
        "lat": 1.7,
        "lng": 115
    },
    "Apopka": {
        "title": "Apopka",
        "lat": 28.68056,
        "lng": -81.50944
    },
    "Apostle Islands National Lakeshore": {
        "title": "Apostle Islands National Lakeshore",
        "lat": 46.965278,
        "lng": -90.664167
    },
    "Appalachia": {
        "title": "Appalachia",
        "lat": 38.8,
        "lng": -81
    },
    "Appalachian Mountains": {
        "title": "Appalachian Mountains",
        "lat": 38,
        "lng": -79
    },
    "Appenzell": {
        "title": "Appenzell",
        "lat": 47.33,
        "lng": 9.4095
    },
    "Appleton": {
        "title": "Appleton",
        "lat": 44.265556,
        "lng": -88.401667
    },
    "Apple Valley (California)": {
        "title": "Apple Valley (California)",
        "lat": 34.50083,
        "lng": -117.18583
    },
    "Wikivoyage:Bad jokes and other deleted nonsense/Apple Valley (Minnesota)": {
        "title": "Wikivoyage:Bad jokes and other deleted nonsense/Apple Valley (Minnesota)",
        "lat": 44.731944,
        "lng": -93.2175
    },
    "Apricale": {
        "title": "Apricale",
        "lat": 43.8833,
        "lng": 7.65
    },
    "Aptos": {
        "title": "Aptos",
        "lat": 36.981389,
        "lng": -121.9075
    },
    "Apulia": {
        "title": "Apulia",
        "lat": 41.008611,
        "lng": 16.512778
    },
    "Apure": {
        "title": "Apure",
        "lat": 7.9,
        "lng": -67.46667
    },
    "Apuseni Mountains": {
        "title": "Apuseni Mountains",
        "lat": 46.5,
        "lng": 23
    },
    "Aquia Harbour": {
        "title": "Aquia Harbour",
        "lat": 38.458611,
        "lng": -77.384167
    },
    "Aquinnah": {
        "title": "Aquinnah",
        "lat": 41.334444,
        "lng": -70.795833
    },
    "Arab": {
        "title": "Arab",
        "lat": 34.31806,
        "lng": -86.49583
    },
    "Araçatuba": {
        "title": "Araçatuba",
        "lat": -21.208889,
        "lng": -50.432778
    },
    "Aracaju": {
        "title": "Aracaju",
        "lat": -10.9167,
        "lng": -37.0667
    },
    "Aracataca": {
        "title": "Aracataca",
        "lat": 10.593694,
        "lng": -74.192808
    },
    "Aracati": {
        "title": "Aracati",
        "lat": -4.5619444444444,
        "lng": -37.77
    },
    "Arad (Israel)": {
        "title": "Arad (Israel)",
        "lat": 31.255956,
        "lng": 35.213156
    },
    "Arad (Romania)": {
        "title": "Arad (Romania)",
        "lat": 46.1667,
        "lng": 21.3167
    },
    "Aragalur": {
        "title": "Aragalur",
        "lat": 11.5608,
        "lng": 78.7886
    },
    "Aragon": {
        "title": "Aragon",
        "lat": 41,
        "lng": -1
    },
    "Aragonda": {
        "title": "Aragonda",
        "lat": 13.281261111111,
        "lng": 78.9564
    },
    "Aragua": {
        "title": "Aragua",
        "lat": 10.2,
        "lng": -67.6
    },
    "Araguari": {
        "title": "Araguari",
        "lat": -18.648889,
        "lng": -48.186944
    },
    "Araku Valley": {
        "title": "Araku Valley",
        "lat": 18.3333,
        "lng": 82.8667
    },
    "Aral": {
        "title": "Aral",
        "lat": 46.8,
        "lng": 61.6667
    },
    "Aral Sea": {
        "title": "Aral Sea",
        "lat": 45,
        "lng": 60
    },
    "Arambol": {
        "title": "Arambol",
        "lat": 15.7,
        "lng": 73.7
    },
    "Aranjuez": {
        "title": "Aranjuez",
        "lat": 40.036111,
        "lng": -3.605
    },
    "Aranmula": {
        "title": "Aranmula",
        "lat": 9.3333,
        "lng": 76.6833
    },
    "Aransas National Wildlife Refuge": {
        "title": "Aransas National Wildlife Refuge",
        "lat": 28.2667,
        "lng": -96.8167
    },
    "Aranuka": {
        "title": "Aranuka",
        "lat": 0.1667,
        "lng": 173.5833
    },
    "Aranyaprathet": {
        "title": "Aranyaprathet",
        "lat": 13.7,
        "lng": 102.5
    },
    "Arapahoe Basin": {
        "title": "Arapahoe Basin",
        "lat": 39.6417,
        "lng": -105.872
    },
    "Araraquara": {
        "title": "Araraquara",
        "lat": -21.795,
        "lng": -48.176
    },
    "Aruvankadu": {
        "title": "Aruvankadu",
        "lat": 11.3506,
        "lng": 76.7747
    },
    "Arbanassi": {
        "title": "Arbanassi",
        "lat": 43.1,
        "lng": 25.6667
    },
    "Erbil": {
        "title": "Erbil",
        "lat": 36.1922,
        "lng": 44.0084
    },
    "Arboga": {
        "title": "Arboga",
        "lat": 59.3942,
        "lng": 15.8395
    },
    "Arborfield": {
        "title": "Arborfield",
        "lat": 53.1026,
        "lng": -103.641
    },
    "Arbus": {
        "title": "Arbus",
        "lat": 39.533333333333,
        "lng": 8.6
    },
    "Arcachon": {
        "title": "Arcachon",
        "lat": 44.6667,
        "lng": -1.1667
    },
    "Arcadia (California)": {
        "title": "Arcadia (California)",
        "lat": 34.132778,
        "lng": -118.036389
    },
    "Arcadia (Greece)": {
        "title": "Arcadia (Greece)",
        "lat": 37.464,
        "lng": 22.271
    },
    "Arcadia (Michigan)": {
        "title": "Arcadia (Michigan)",
        "lat": 44.49306,
        "lng": -86.23167
    },
    "Arcadia (Oklahoma)": {
        "title": "Arcadia (Oklahoma)",
        "lat": 35.66667,
        "lng": -97.32667
    },
    "Arcadia Wildlife Management Park": {
        "title": "Arcadia Wildlife Management Park",
        "lat": 41.55,
        "lng": -71.7
    },
    "Arcata": {
        "title": "Arcata",
        "lat": 40.866389,
        "lng": -124.082778
    },
    "Arch Cape": {
        "title": "Arch Cape",
        "lat": 45.82889,
        "lng": -123.96194
    },
    "Arches National Park": {
        "title": "Arches National Park",
        "lat": 38.72,
        "lng": -109.595
    },
    "Arcidosso": {
        "title": "Arcidosso",
        "lat": 42.8667,
        "lng": 11.55
    },
    "Arco": {
        "title": "Arco",
        "lat": 45.916666666667,
        "lng": 10.883333333333
    },
    "Arcola (Illinois)": {
        "title": "Arcola (Illinois)",
        "lat": 39.683611,
        "lng": -88.305833
    },
    "Arcot": {
        "title": "Arcot",
        "lat": 12.9,
        "lng": 79.3333
    },
    "Arctic": {
        "title": "Arctic",
        "lat": 89.9997,
        "lng": 0.0001
    },
    "Arctic Alaska": {
        "title": "Arctic Alaska",
        "lat": 70,
        "lng": -154
    },
    "Ardèche and Drôme": {
        "title": "Ardèche and Drôme",
        "lat": 44.6667,
        "lng": 4.4167
    },
    "Arden Hills": {
        "title": "Arden Hills",
        "lat": 45.053056,
        "lng": -93.166944
    },
    "Ardennes": {
        "title": "Ardennes",
        "lat": 50.25,
        "lng": 5.6667
    },
    "Ardmore (Oklahoma)": {
        "title": "Ardmore (Oklahoma)",
        "lat": 34.1742,
        "lng": -97.1436
    },
    "Ardoch": {
        "title": "Ardoch",
        "lat": 48.205556,
        "lng": -97.34
    },
    "Ardrossan": {
        "title": "Ardrossan",
        "lat": 55.64001,
        "lng": -4.81517
    },
    "Areguá": {
        "title": "Areguá",
        "lat": -25.3167,
        "lng": -57.3833
    },
    "Aremark": {
        "title": "Aremark",
        "lat": 59.223056,
        "lng": 11.695556
    },
    "Arendal": {
        "title": "Arendal",
        "lat": 58.482222,
        "lng": 8.7825
    },
    "Arenzville": {
        "title": "Arenzville",
        "lat": 39.87694,
        "lng": -90.37333
    },
    "Arequipa": {
        "title": "Arequipa",
        "lat": -16.398763888889,
        "lng": -71.536883333333
    },
    "Arezzo": {
        "title": "Arezzo",
        "lat": 43.473333,
        "lng": 11.87
    },
    "Arezzo (province)": {
        "title": "Arezzo (province)",
        "lat": 43.473,
        "lng": 11.875
    },
    "Argalasti": {
        "title": "Argalasti",
        "lat": 39.2163,
        "lng": 23.2104
    },
    "Argentina": {
        "title": "Argentina",
        "lat": -34,
        "lng": -64
    },
    "Argos": {
        "title": "Argos",
        "lat": 37.6167,
        "lng": 22.7167
    },
    "Argusville": {
        "title": "Argusville",
        "lat": 47.051667,
        "lng": -96.935556
    },
    "Argyll and Bute": {
        "title": "Argyll and Bute",
        "lat": 56.0705,
        "lng": -5.39978
    },
    "Ari": {
        "title": "Ari",
        "lat": 3.86425,
        "lng": 72.8339
    },
    "Ariège": {
        "title": "Ariège",
        "lat": 43,
        "lng": 1.5
    },
    "Arica": {
        "title": "Arica",
        "lat": -18.475,
        "lng": -70.314
    },
    "Aridea": {
        "title": "Aridea",
        "lat": 40.975,
        "lng": 22.0583
    },
    "Arieșeni": {
        "title": "Arieșeni",
        "lat": 46.4833,
        "lng": 22.7667
    },
    "Ariel": {
        "title": "Ariel",
        "lat": 32.10621,
        "lng": 35.18509
    },
    "Arima": {
        "title": "Arima",
        "lat": 10.61666667,
        "lng": -61.2666667
    },
    "Arima Onsen": {
        "title": "Arima Onsen",
        "lat": 34.798056,
        "lng": 135.2475
    },
    "Arinsal": {
        "title": "Arinsal",
        "lat": 42.5667,
        "lng": 1.4833
    },
    "Arisaig": {
        "title": "Arisaig",
        "lat": 56.91103,
        "lng": -5.84252
    },
    "Arita": {
        "title": "Arita",
        "lat": 33.1833,
        "lng": 129.8833
    },
    "Arizona": {
        "title": "Arizona",
        "lat": 34.2,
        "lng": -111.8
    },
    "Arkansas": {
        "title": "Arkansas",
        "lat": 34.8,
        "lng": -92.2
    },
    "Arkhangelsk": {
        "title": "Arkhangelsk",
        "lat": 64.5333,
        "lng": 40.5333
    },
    "Arkhangelsk Oblast": {
        "title": "Arkhangelsk Oblast",
        "lat": 63.5,
        "lng": 43
    },
    "Arles": {
        "title": "Arles",
        "lat": 43.6767,
        "lng": 4.6278
    },
    "Arlington (Massachusetts)": {
        "title": "Arlington (Massachusetts)",
        "lat": 42.4153,
        "lng": -71.1569
    },
    "Arlington (Texas)": {
        "title": "Arlington (Texas)",
        "lat": 32.73556,
        "lng": -97.10806
    },
    "Arlington (Vermont)": {
        "title": "Arlington (Vermont)",
        "lat": 43.07472,
        "lng": -73.15389
    },
    "Arlington (Virginia)": {
        "title": "Arlington (Virginia)",
        "lat": 38.880278,
        "lng": -77.108333
    },
    "Arlington (Washington)": {
        "title": "Arlington (Washington)",
        "lat": 48.1811,
        "lng": -122.1389
    },
    "Arlington Heights": {
        "title": "Arlington Heights",
        "lat": 42.082,
        "lng": -87.978
    },
    "Armação dos Búzios": {
        "title": "Armação dos Búzios",
        "lat": -22.75,
        "lng": -41.8833
    },
    "Armadale (Skye)": {
        "title": "Armadale (Skye)",
        "lat": 57.06245,
        "lng": -5.9055
    },
    "Armagh": {
        "title": "Armagh",
        "lat": 54.3499,
        "lng": -6.6546
    },
    "Armavir": {
        "title": "Armavir",
        "lat": 40.15,
        "lng": 44.04
    },
    "Armenia": {
        "title": "Armenia",
        "lat": 40.1833,
        "lng": 44.5167
    },
    "Armenia (Colombia)": {
        "title": "Armenia (Colombia)",
        "lat": 4.5375,
        "lng": -75.675277777778
    },
    "Armstrong": {
        "title": "Armstrong",
        "lat": 50.448333,
        "lng": -119.196111
    },
    "Armstrong Redwoods State Natural Reserve": {
        "title": "Armstrong Redwoods State Natural Reserve",
        "lat": 38.5381,
        "lng": -123.01
    },
    "Armutlu (Marmara)": {
        "title": "Armutlu (Marmara)",
        "lat": 40.519444,
        "lng": 28.828056
    },
    "Arnhem": {
        "title": "Arnhem",
        "lat": 51.9833,
        "lng": 5.9167
    },
    "Arnprior": {
        "title": "Arnprior",
        "lat": 45.4333,
        "lng": -76.35
    },
    "Arona": {
        "title": "Arona",
        "lat": 45.75,
        "lng": 8.55
    },
    "Aroostook": {
        "title": "Aroostook",
        "lat": 46.65,
        "lng": -68.59
    },
    "Arovudi": {
        "title": "Arovudi",
        "lat": -17.62,
        "lng": 178.785
    },
    "Arraial do Cabo": {
        "title": "Arraial do Cabo",
        "lat": -22.9667,
        "lng": -42.0167
    },
    "Arras": {
        "title": "Arras",
        "lat": 50.2897,
        "lng": 2.7808
    },
    "Arrow Rock": {
        "title": "Arrow Rock",
        "lat": 39.07,
        "lng": -92.9475
    },
    "Arrowtown": {
        "title": "Arrowtown",
        "lat": -44.95,
        "lng": 168.8333
    },
    "Arroyo Grande": {
        "title": "Arroyo Grande",
        "lat": 35.120833,
        "lng": -120.586667
    },
    "Ar Rutba": {
        "title": "Ar Rutba",
        "lat": 33.0381,
        "lng": 40.2844
    },
    "Arshan": {
        "title": "Arshan",
        "lat": 51.908611,
        "lng": 102.428889
    },
    "Artashat": {
        "title": "Artashat",
        "lat": 39.953925,
        "lng": 44.550556
    },
    "Artemisa": {
        "title": "Artemisa",
        "lat": 22.813611111111,
        "lng": -82.763333333333
    },
    "Artesia (California)": {
        "title": "Artesia (California)",
        "lat": 33.86583,
        "lng": -118.08306
    },
    "Arthur": {
        "title": "Arthur",
        "lat": 47.10417,
        "lng": -97.21806
    },
    "Artigas": {
        "title": "Artigas",
        "lat": -30.403316,
        "lng": -56.469518
    },
    "Artyom": {
        "title": "Artyom",
        "lat": 43.380556,
        "lng": 132.186667
    },
    "Arua": {
        "title": "Arua",
        "lat": 3.03,
        "lng": 30.91
    },
    "Aruba": {
        "title": "Aruba",
        "lat": 12.516,
        "lng": -69.968
    },
    "Arunachal Pradesh": {
        "title": "Arunachal Pradesh",
        "lat": 27.06,
        "lng": 93.37
    },
    "Arundel (England)": {
        "title": "Arundel (England)",
        "lat": 50.85439,
        "lng": -0.5539
    },
    "Arundel (Maine)": {
        "title": "Arundel (Maine)",
        "lat": 43.3825,
        "lng": -70.47778
    },
    "Arusha": {
        "title": "Arusha",
        "lat": -3.36692,
        "lng": 36.69107
    },
    "Arusha National Park": {
        "title": "Arusha National Park",
        "lat": -3.25,
        "lng": 36.833333333333
    },
    "Arvayheer": {
        "title": "Arvayheer",
        "lat": 46.266111111111,
        "lng": 102.77777777778
    },
    "Arvika": {
        "title": "Arvika",
        "lat": 59.65,
        "lng": 12.5833
    },
    "Arvilla": {
        "title": "Arvilla",
        "lat": 47.91917,
        "lng": -97.49472
    },
    "Asahikawa": {
        "title": "Asahikawa",
        "lat": 43.769,
        "lng": 142.365
    },
    "Asakuchi": {
        "title": "Asakuchi",
        "lat": 34.527778,
        "lng": 133.585
    },
    "Asan": {
        "title": "Asan",
        "lat": 36.7833,
        "lng": 126.9833
    },
    "Asansol": {
        "title": "Asansol",
        "lat": 23.6929,
        "lng": 86.9594
    },
    "Asbury Park": {
        "title": "Asbury Park",
        "lat": 40.22028,
        "lng": -74.01194
    },
    "Ascea": {
        "title": "Ascea",
        "lat": 40.15,
        "lng": 15.1833
    },
    "Ascension": {
        "title": "Ascension",
        "lat": -7.928611,
        "lng": -14.411667
    },
    "Ascoli Piceno (province)": {
        "title": "Ascoli Piceno (province)",
        "lat": 42.8547,
        "lng": 13.5753
    },
    "Ascot": {
        "title": "Ascot",
        "lat": 51.40997,
        "lng": -0.67386
    },
    "A seaside stroll in Helsinki": {
        "title": "A seaside stroll in Helsinki",
        "lat": 60.17781,
        "lng": 24.90686
    },
    "Asenovgrad": {
        "title": "Asenovgrad",
        "lat": 42.0167,
        "lng": 24.8667
    },
    "Ashanti-Kwahu": {
        "title": "Ashanti-Kwahu",
        "lat": 6.78,
        "lng": -1.98
    },
    "Ashaway": {
        "title": "Ashaway",
        "lat": 41.423056,
        "lng": -71.788889
    },
    "Ashbourne": {
        "title": "Ashbourne",
        "lat": 53.017,
        "lng": -1.732
    },
    "Ashburn (Virginia)": {
        "title": "Ashburn (Virginia)",
        "lat": 39.043611,
        "lng": -77.4875
    },
    "Ashdod": {
        "title": "Ashdod",
        "lat": 31.8,
        "lng": 34.65
    },
    "Ashdown Forest": {
        "title": "Ashdown Forest",
        "lat": 51.0725,
        "lng": 0.043056
    },
    "Asheboro": {
        "title": "Asheboro",
        "lat": 35.715278,
        "lng": -79.813056
    },
    "Asheville": {
        "title": "Asheville",
        "lat": 35.58,
        "lng": -82.555833
    },
    "Ashford (England)": {
        "title": "Ashford (England)",
        "lat": 51.1465,
        "lng": 0.8676
    },
    "Ashford (Washington)": {
        "title": "Ashford (Washington)",
        "lat": 46.755833,
        "lng": -122.019167
    },
    "Ash Fork": {
        "title": "Ash Fork",
        "lat": 35.221111,
        "lng": -112.487222
    },
    "Ashgabat": {
        "title": "Ashgabat",
        "lat": 37.95,
        "lng": 58.38333
    },
    "Ashikaga": {
        "title": "Ashikaga",
        "lat": 36.3333,
        "lng": 139.45
    },
    "Ashkelon": {
        "title": "Ashkelon",
        "lat": 31.6667,
        "lng": 34.5667
    },
    "Ashland (Kentucky)": {
        "title": "Ashland (Kentucky)",
        "lat": 38.47833,
        "lng": -82.63806
    },
    "Ashland (Massachusetts)": {
        "title": "Ashland (Massachusetts)",
        "lat": 42.261111,
        "lng": -71.463889
    },
    "Ashland (Nebraska)": {
        "title": "Ashland (Nebraska)",
        "lat": 41.040556,
        "lng": -96.3725
    },
    "Ashland (New Hampshire)": {
        "title": "Ashland (New Hampshire)",
        "lat": 43.695,
        "lng": -71.631667
    },
    "Ashland (Oregon)": {
        "title": "Ashland (Oregon)",
        "lat": 42.191389,
        "lng": -122.700833
    },
    "Ashland (Wisconsin)": {
        "title": "Ashland (Wisconsin)",
        "lat": 46.59,
        "lng": -90.88
    },
    "Ashley": {
        "title": "Ashley",
        "lat": 46.035,
        "lng": -99.373611
    },
    "Ashmore and Cartier Islands": {
        "title": "Ashmore and Cartier Islands",
        "lat": -12.26,
        "lng": 123.042
    },
    "Ashtabula": {
        "title": "Ashtabula",
        "lat": 41.8772,
        "lng": -80.7969
    },
    "Ashtabula County": {
        "title": "Ashtabula County",
        "lat": 41.89,
        "lng": -80.76
    },
    "Ashtarak": {
        "title": "Ashtarak",
        "lat": 40.3,
        "lng": 44.3667
    },
    "Ashton (Idaho)": {
        "title": "Ashton (Idaho)",
        "lat": 44.072222,
        "lng": -111.447778
    },
    "Tameside": {
        "title": "Tameside",
        "lat": 53.48549,
        "lng": -2.10959
    },
    "Asia": {
        "title": "Asia",
        "lat": 44,
        "lng": 101
    },
    "Asir": {
        "title": "Asir",
        "lat": 19,
        "lng": 43
    },
    "Askøy": {
        "title": "Askøy",
        "lat": 60.471389,
        "lng": 5.160556
    },
    "Askim": {
        "title": "Askim",
        "lat": 59.586111111111,
        "lng": 11.17
    },
    "Asmara": {
        "title": "Asmara",
        "lat": 15.333333,
        "lng": 38.933333
    },
    "Asmat": {
        "title": "Asmat",
        "lat": -5.37,
        "lng": 138.46
    },
    "Asni": {
        "title": "Asni",
        "lat": 31.2500377,
        "lng": -7.9813423
    },
    "Aspen": {
        "title": "Aspen",
        "lat": 39.19111,
        "lng": -106.8175
    },
    "Assam": {
        "title": "Assam",
        "lat": 26,
        "lng": 93
    },
    "Assateague Island": {
        "title": "Assateague Island",
        "lat": 38.204937,
        "lng": -75.154216
    },
    "Assen": {
        "title": "Assen",
        "lat": 53,
        "lng": 6.55
    },
    "Assens": {
        "title": "Assens",
        "lat": 55.26968,
        "lng": 9.90169
    },
    "Assisi": {
        "title": "Assisi",
        "lat": 43.075833,
        "lng": 12.6175
    },
    "Assmannshausen": {
        "title": "Assmannshausen",
        "lat": 49.9885,
        "lng": 7.8678
    },
    "Assos": {
        "title": "Assos",
        "lat": 39.487778,
        "lng": 26.336944
    },
    "Astana": {
        "title": "Astana",
        "lat": 51.166667,
        "lng": 71.416667
    },
    "Asti": {
        "title": "Asti",
        "lat": 44.90063,
        "lng": 8.20704
    },
    "Astoria": {
        "title": "Astoria",
        "lat": 46.188889,
        "lng": -123.821111
    },
    "Astrakhan": {
        "title": "Astrakhan",
        "lat": 46.35,
        "lng": 48.031
    },
    "Astrakhan Oblast": {
        "title": "Astrakhan Oblast",
        "lat": 47.2333,
        "lng": 47.2333
    },
    "Asturias": {
        "title": "Asturias",
        "lat": 43.3333,
        "lng": -6
    },
    "Asuka": {
        "title": "Asuka",
        "lat": 34.4667,
        "lng": 135.8167
    },
    "Asuke": {
        "title": "Asuke",
        "lat": 35.133972,
        "lng": 137.145417
    },
    "Asunción": {
        "title": "Asunción",
        "lat": -25.282197,
        "lng": -57.6351
    },
    "Aswan": {
        "title": "Aswan",
        "lat": 24.088889,
        "lng": 32.899722
    },
    "Atacames": {
        "title": "Atacames",
        "lat": 0.8667,
        "lng": -79.85
    },
    "Atami": {
        "title": "Atami",
        "lat": 35.0961111,
        "lng": 139.0716667
    },
    "Atar": {
        "title": "Atar",
        "lat": 20.5167,
        "lng": -13.05
    },
    "Atascadero": {
        "title": "Atascadero",
        "lat": 35.484167,
        "lng": -120.6725
    },
    "A Taste of Coastal Texas": {
        "title": "A Taste of Coastal Texas",
        "lat": 28.81,
        "lng": -96.66
    },
    "Atchison": {
        "title": "Atchison",
        "lat": 39.5625,
        "lng": -95.128333
    },
    "Athabasca": {
        "title": "Athabasca",
        "lat": 54.719722,
        "lng": -113.285556
    },
    "Athens": {
        "title": "Athens",
        "lat": 37.9667,
        "lng": 23.7167
    },
    "Athens (Georgia)": {
        "title": "Athens (Georgia)",
        "lat": 33.95,
        "lng": -83.3833
    },
    "Athens (Ohio)": {
        "title": "Athens (Ohio)",
        "lat": 39.329167,
        "lng": -82.096111
    },
    "Athens (Texas)": {
        "title": "Athens (Texas)",
        "lat": 32.202778,
        "lng": -95.849167
    },
    "Piraeus": {
        "title": "Piraeus",
        "lat": 37.95,
        "lng": 23.6333
    },
    "Athlone": {
        "title": "Athlone",
        "lat": 53.42462,
        "lng": -7.94063
    },
    "Athy": {
        "title": "Athy",
        "lat": 52.99,
        "lng": -6.99
    },
    "Atins": {
        "title": "Atins",
        "lat": -2.56973,
        "lng": -42.74268
    },
    "Atkins (Arkansas)": {
        "title": "Atkins (Arkansas)",
        "lat": 35.243611,
        "lng": -92.938333
    },
    "Atlanta": {
        "title": "Atlanta",
        "lat": 33.75003,
        "lng": -84.39113
    },
    "Atlanta (Illinois)": {
        "title": "Atlanta (Illinois)",
        "lat": 40.262778,
        "lng": -89.233056
    },
    "Atlanta/Buckhead": {
        "title": "Atlanta/Buckhead",
        "lat": 33.83942,
        "lng": -84.37992
    },
    "Atlanta/Downtown": {
        "title": "Atlanta/Downtown",
        "lat": 33.747,
        "lng": -84.391
    },
    "Atlanta/East": {
        "title": "Atlanta/East",
        "lat": 33.762,
        "lng": -84.353
    },
    "Atlanta/Midtown": {
        "title": "Atlanta/Midtown",
        "lat": 33.758,
        "lng": -84.387
    },
    "Atlanta/South": {
        "title": "Atlanta/South",
        "lat": 33.716,
        "lng": -84.391
    },
    "Atlanta/West": {
        "title": "Atlanta/West",
        "lat": 33.755,
        "lng": -84.436
    },
    "Atlantic (Iowa)": {
        "title": "Atlantic (Iowa)",
        "lat": 41.401389,
        "lng": -95.010833
    },
    "Atlantic Beach": {
        "title": "Atlantic Beach",
        "lat": 34.701,
        "lng": -76.743
    },
    "Atlantic City": {
        "title": "Atlantic City",
        "lat": 39.364966,
        "lng": -74.439034
    },
    "Atlantic Coast (Uruguay)": {
        "title": "Atlantic Coast (Uruguay)",
        "lat": -34.38,
        "lng": -54.18
    },
    "Atlantic County": {
        "title": "Atlantic County",
        "lat": 39.47,
        "lng": -74.64
    },
    "Atlantic Canada": {
        "title": "Atlantic Canada",
        "lat": 47,
        "lng": -62
    },
    "Atlantic Seaboard": {
        "title": "Atlantic Seaboard",
        "lat": -34.147044,
        "lng": 18.302536
    },
    "Atmore": {
        "title": "Atmore",
        "lat": 31.02389,
        "lng": -87.49389
    },
    "Atocha": {
        "title": "Atocha",
        "lat": -20.9347,
        "lng": -66.22
    },
    "Atoka": {
        "title": "Atoka",
        "lat": 34.384167,
        "lng": -96.1275
    },
    "Atrani": {
        "title": "Atrani",
        "lat": 40.6333,
        "lng": 14.6167
    },
    "Atsugi": {
        "title": "Atsugi",
        "lat": 35.4333,
        "lng": 139.3667
    },
    "Attica": {
        "title": "Attica",
        "lat": 38.0027,
        "lng": 23.81
    },
    "Vari-Voula-Vouliagmeni": {
        "title": "Vari-Voula-Vouliagmeni",
        "lat": 37.65,
        "lng": 24.03
    },
    "Attingal": {
        "title": "Attingal",
        "lat": 8.68,
        "lng": 76.83
    },
    "Attleboro": {
        "title": "Attleboro",
        "lat": 41.94444,
        "lng": -71.28556
    },
    "Atwater (California)": {
        "title": "Atwater (California)",
        "lat": 37.354245,
        "lng": -120.603019
    },
    "Atwater (Ohio)": {
        "title": "Atwater (Ohio)",
        "lat": 41.023056,
        "lng": -81.161111
    },
    "Atyrau": {
        "title": "Atyrau",
        "lat": 47.1167,
        "lng": 51.8833
    },
    "Auburn (Alabama)": {
        "title": "Auburn (Alabama)",
        "lat": 32.60972,
        "lng": -85.48083
    },
    "Auburn (California)": {
        "title": "Auburn (California)",
        "lat": 38.89667,
        "lng": -121.07694
    },
    "Auburn (Indiana)": {
        "title": "Auburn (Indiana)",
        "lat": 41.36694,
        "lng": -85.05889
    },
    "Auburn (New York)": {
        "title": "Auburn (New York)",
        "lat": 42.9333,
        "lng": -76.5667
    },
    "Auburn (Washington)": {
        "title": "Auburn (Washington)",
        "lat": 47.302222,
        "lng": -122.214722
    },
    "Auburn Hills": {
        "title": "Auburn Hills",
        "lat": 42.6875,
        "lng": -83.234167
    },
    "Auch": {
        "title": "Auch",
        "lat": 43.646388888889,
        "lng": 0.58555555555556
    },
    "Auckland": {
        "title": "Auckland",
        "lat": -36.84,
        "lng": 174.77
    },
    "Auckland Region": {
        "title": "Auckland Region",
        "lat": -36.74,
        "lng": 174.78
    },
    "Aude": {
        "title": "Aude",
        "lat": 43.0833,
        "lng": 2.4167
    },
    "Audubon": {
        "title": "Audubon",
        "lat": 41.720278,
        "lng": -94.928333
    },
    "Aufseß": {
        "title": "Aufseß",
        "lat": 49.9,
        "lng": 11.2167
    },
    "Augrabies": {
        "title": "Augrabies",
        "lat": -28.6667,
        "lng": 20.4167
    },
    "Augrabies Falls National Park": {
        "title": "Augrabies Falls National Park",
        "lat": -28.591111,
        "lng": 20.338333
    },
    "Augsburg": {
        "title": "Augsburg",
        "lat": 48.3667,
        "lng": 10.9
    },
    "Augusta (Georgia)": {
        "title": "Augusta (Georgia)",
        "lat": 33.47,
        "lng": -81.975
    },
    "Augusta (Italy)": {
        "title": "Augusta (Italy)",
        "lat": 37.25,
        "lng": 15.21666667
    },
    "Augusta (Maine)": {
        "title": "Augusta (Maine)",
        "lat": 44.31056,
        "lng": -69.77944
    },
    "Augusta (Wisconsin)": {
        "title": "Augusta (Wisconsin)",
        "lat": 44.679722,
        "lng": -91.122778
    },
    "Augustów": {
        "title": "Augustów",
        "lat": 53.85,
        "lng": 22.9667
    },
    "Aukštaitija": {
        "title": "Aukštaitija",
        "lat": 55.84757,
        "lng": 24.86755
    },
    "Auli": {
        "title": "Auli",
        "lat": 30.52892,
        "lng": 79.57026
    },
    "Aurangabad": {
        "title": "Aurangabad",
        "lat": 19.88,
        "lng": 75.32
    },
    "Auray": {
        "title": "Auray",
        "lat": 47.6667,
        "lng": -3
    },
    "Aure": {
        "title": "Aure",
        "lat": 63.268611111111,
        "lng": 8.6077777777778
    },
    "Aurillac": {
        "title": "Aurillac",
        "lat": 44.9167,
        "lng": 2.4333
    },
    "Aurora (Illinois)": {
        "title": "Aurora (Illinois)",
        "lat": 41.763333,
        "lng": -88.29
    },
    "Aurora (Kentucky)": {
        "title": "Aurora (Kentucky)",
        "lat": 36.776667,
        "lng": -88.144167
    },
    "Aurora (Missouri)": {
        "title": "Aurora (Missouri)",
        "lat": 36.97,
        "lng": -93.720556
    },
    "Aurora (Nebraska)": {
        "title": "Aurora (Nebraska)",
        "lat": 40.86722,
        "lng": -98.00417
    },
    "Aurora (Ohio)": {
        "title": "Aurora (Ohio)",
        "lat": 41.3167,
        "lng": -81.3333
    },
    "Aurora (Ontario)": {
        "title": "Aurora (Ontario)",
        "lat": 44,
        "lng": -79.4667
    },
    "Aurora (province)": {
        "title": "Aurora (province)",
        "lat": 15.8833,
        "lng": 121.55
    },
    "Auroville": {
        "title": "Auroville",
        "lat": 12.00694,
        "lng": 79.8106
    },
    "Austell": {
        "title": "Austell",
        "lat": 33.815833,
        "lng": -84.636111
    },
    "Austevoll": {
        "title": "Austevoll",
        "lat": 60.1,
        "lng": 5.1667
    },
    "Austin": {
        "title": "Austin",
        "lat": 30.26767,
        "lng": -97.74296
    },
    "Austin (Minnesota)": {
        "title": "Austin (Minnesota)",
        "lat": 43.66667,
        "lng": -92.97472
    },
    "Austin/Downtown": {
        "title": "Austin/Downtown",
        "lat": 30.271,
        "lng": -97.743
    },
    "Austin/East": {
        "title": "Austin/East",
        "lat": 30.286,
        "lng": -97.7
    },
    "Austin/Hyde Park": {
        "title": "Austin/Hyde Park",
        "lat": 30.3075,
        "lng": -97.730278
    },
    "Austin/North Loop": {
        "title": "Austin/North Loop",
        "lat": 30.351,
        "lng": -97.73
    },
    "Austin/Northwest": {
        "title": "Austin/Northwest",
        "lat": 30.443,
        "lng": -97.772
    },
    "Austin/South": {
        "title": "Austin/South",
        "lat": 30.242,
        "lng": -97.763
    },
    "Austin/UT and the Drag": {
        "title": "Austin/UT and the Drag",
        "lat": 30.286568,
        "lng": -97.73499
    },
    "Australasia": {
        "title": "Australasia",
        "lat": -30,
        "lng": 140
    },
    "Australia": {
        "title": "Australia",
        "lat": -28,
        "lng": 137
    },
    "Austral Islands": {
        "title": "Austral Islands",
        "lat": -25,
        "lng": -149
    },
    "Austria": {
        "title": "Austria",
        "lat": 48,
        "lng": 14
    },
    "Bangsamoro": {
        "title": "Bangsamoro",
        "lat": 7.21667,
        "lng": 124.25
    },
    "Autun": {
        "title": "Autun",
        "lat": 46.9517,
        "lng": 4.2994
    },
    "Auvergne": {
        "title": "Auvergne",
        "lat": 45.7,
        "lng": 3.3
    },
    "Auxerre": {
        "title": "Auxerre",
        "lat": 47.7986,
        "lng": 3.5672
    },
    "Auyuittuq National Park": {
        "title": "Auyuittuq National Park",
        "lat": 67.883333,
        "lng": -65.016667
    },
    "Avallon": {
        "title": "Avallon",
        "lat": 47.48718,
        "lng": 3.91143
    },
    "Avalon": {
        "title": "Avalon",
        "lat": 33.3428,
        "lng": -118.3278
    },
    "Avalon (New Jersey)": {
        "title": "Avalon (New Jersey)",
        "lat": 39.10111,
        "lng": -74.71778
    },
    "Avebury": {
        "title": "Avebury",
        "lat": 51.428611,
        "lng": -1.854167
    },
    "Aveiro": {
        "title": "Aveiro",
        "lat": 40.633333,
        "lng": -8.65
    },
    "Avellino": {
        "title": "Avellino",
        "lat": 40.9167,
        "lng": 14.7833
    },
    "Averøy": {
        "title": "Averøy",
        "lat": 62.997222222222,
        "lng": 7.5552777777778
    },
    "Avery Island": {
        "title": "Avery Island",
        "lat": 29.90361,
        "lng": -91.91028
    },
    "Avesta": {
        "title": "Avesta",
        "lat": 60.14444444,
        "lng": 16.1675
    },
    "Aveyron": {
        "title": "Aveyron",
        "lat": 44.25,
        "lng": 2.7
    },
    "Aviemore": {
        "title": "Aviemore",
        "lat": 57.194,
        "lng": -3.823
    },
    "Avignon": {
        "title": "Avignon",
        "lat": 43.94933,
        "lng": 4.80587
    },
    "Avila Beach": {
        "title": "Avila Beach",
        "lat": 35.18,
        "lng": -120.73
    },
    "Avoca (New York)": {
        "title": "Avoca (New York)",
        "lat": 42.410278,
        "lng": -77.425556
    },
    "Avon (Connecticut)": {
        "title": "Avon (Connecticut)",
        "lat": 41.80972,
        "lng": -72.83056
    },
    "Avon (Indiana)": {
        "title": "Avon (Indiana)",
        "lat": 39.763056,
        "lng": -86.387778
    },
    "Avon (Ohio)": {
        "title": "Avon (Ohio)",
        "lat": 41.450556,
        "lng": -82.021667
    },
    "Avondale (Louisiana)": {
        "title": "Avondale (Louisiana)",
        "lat": 29.904444,
        "lng": -90.204167
    },
    "Avon Lake": {
        "title": "Avon Lake",
        "lat": 41.501667,
        "lng": -82.006389
    },
    "Avon Park": {
        "title": "Avon Park",
        "lat": 27.594444,
        "lng": -81.503333
    },
    "Avrankou": {
        "title": "Avrankou",
        "lat": 6.55,
        "lng": 2.6667
    },
    "Avşa": {
        "title": "Avşa",
        "lat": 40.511944,
        "lng": 27.498611
    },
    "Avudaiyarkoil": {
        "title": "Avudaiyarkoil",
        "lat": 10.09,
        "lng": 78.59
    },
    "Awa": {
        "title": "Awa",
        "lat": 34.078889,
        "lng": 134.238333
    },
    "Awadh": {
        "title": "Awadh",
        "lat": 26.77,
        "lng": 82.15
    },
    "Awaji Island": {
        "title": "Awaji Island",
        "lat": 34.3833,
        "lng": 134.8333
    },
    "Awasa": {
        "title": "Awasa",
        "lat": 7.05,
        "lng": 38.466666666667
    },
    "Awash National Park": {
        "title": "Awash National Park",
        "lat": 9,
        "lng": 40
    },